{
  "network": {
    "company": [
      "Comunicare S.r.l."
    ], 
    "href": "/v2/networks/bicincitta-livorno", 
    "id": "bicincitta-livorno", 
    "location": {
      "city": "Livorno", 
      "country": "IT", 
      "latitude": 43.548473, 
      "longitude": 10.3105674
    }, 
    "name": "Bicincitt\u00e0", 
    "stations": [
      {
        "empty_slots": 4, 
        "extra": {
          "description": "Piazza Cavour", 
          "status": "online"
        }, 
        "free_bikes": 6, 
        "id": "5bcc94791abc54e5cf2514596166b99d", 
        "latitude": 43.54755177389009, 
        "longitude": 10.311418459524475, 
        "name": "Cavour", 
        "timestamp": "2017-08-15T04:49:04.401000Z"
      }, 
      {
        "empty_slots": 3, 
        "extra": {
          "description": "Parcheggio scambiatore Viale della Liberta`", 
          "status": "online"
        }, 
        "free_bikes": 3, 
        "id": "c3948a3a4f0dd4251314df506b68bffa", 
        "latitude": 43.533207827474754, 
        "longitude": 10.319443746136812, 
        "name": "Liberta`", 
        "timestamp": "2017-08-15T04:49:04.405000Z"
      }, 
      {
        "empty_slots": 6, 
        "extra": {
          "description": "Piazza del Municipio", 
          "status": "online"
        }, 
        "free_bikes": 4, 
        "id": "a2e78736de48d892ff0a971b822e4d43", 
        "latitude": 43.55211933346912, 
        "longitude": 10.308314977575947, 
        "name": "Municipio", 
        "timestamp": "2017-08-15T04:49:04.398000Z"
      }, 
      {
        "empty_slots": 2, 
        "extra": {
          "description": "Piazza della Repubblica", 
          "status": "online"
        }, 
        "free_bikes": 2, 
        "id": "59168cfee974ffe5614c78d34f62ba1b", 
        "latitude": 43.55299081749732, 
        "longitude": 10.313041197342045, 
        "name": "Repubblica", 
        "timestamp": "2017-08-15T04:49:04.402000Z"
      }, 
      {
        "empty_slots": 8, 
        "extra": {
          "description": "Piazza Dante", 
          "status": "online"
        }, 
        "free_bikes": 3, 
        "id": "c6e7d9382f04272568965b11165f8845", 
        "latitude": 43.55356958677043, 
        "longitude": 10.335602989479867, 
        "name": "Stazione", 
        "timestamp": "2017-08-15T04:49:04.403000Z"
      }, 
      {
        "empty_slots": 5, 
        "extra": {
          "description": "Piazza Mazzini", 
          "status": "online"
        }, 
        "free_bikes": 0, 
        "id": "1775618cc370e0a7997ec3258883405f", 
        "latitude": 43.54516545085783, 
        "longitude": 10.304402817127198, 
        "name": "Mazzini", 
        "timestamp": "2017-08-15T04:49:04.404000Z"
      }, 
      {
        "empty_slots": 4, 
        "extra": {
          "description": "Viale Alfieri", 
          "status": "online"
        }, 
        "free_bikes": 2, 
        "id": "962156c6d73599769129e5d49be11382", 
        "latitude": 43.5487048631854, 
        "longitude": 10.327405641731048, 
        "name": "Ospedale", 
        "timestamp": "2017-08-15T04:49:04.404000Z"
      }, 
      {
        "empty_slots": 2, 
        "extra": {
          "description": "Viale della Liberta` / Via Accademia Labronica", 
          "status": "online"
        }, 
        "free_bikes": 2, 
        "id": "35cce10d21212ce14b6aba41b6c45d68", 
        "latitude": 43.53700752877481, 
        "longitude": 10.318577196017486, 
        "name": "Villa Fabbricotti", 
        "timestamp": "2017-08-15T04:49:04.406000Z"
      }, 
      {
        "empty_slots": 3, 
        "extra": {
          "description": "Piazza Sant'Jacopo in Acquaviva / viale Italia", 
          "status": "online"
        }, 
        "free_bikes": 2, 
        "id": "e0a7744e9e2a81f2f5a80a5d0bfe2a90", 
        "latitude": 43.53032574342833, 
        "longitude": 10.306091942397302, 
        "name": "Sant'Jacopo", 
        "timestamp": "2017-08-15T04:49:04.407000Z"
      }
    ]
  }
}