{
  "network": {
    "company": [
      "Comunicare S.r.l."
    ], 
    "href": "/v2/networks/bicincitta-ente-parco-di-montemarcello-magra", 
    "id": "bicincitta-ente-parco-di-montemarcello-magra", 
    "location": {
      "city": "Ente Parco Montemarcello Magra", 
      "country": "IT", 
      "latitude": 44.1143897, 
      "longitude": 9.9635986
    }, 
    "name": "Bicincitt\u00e0", 
    "stations": [
      {
        "empty_slots": 0, 
        "extra": {
          "status": "offline"
        }, 
        "free_bikes": 0, 
        "id": "79539d32a2d92e5d5395d1220a4f7398", 
        "latitude": 44.08353138767399, 
        "longitude": 9.89692211151123, 
        "name": "San Terenzo", 
        "timestamp": "2017-08-15T04:50:01.319000Z"
      }, 
      {
        "empty_slots": 0, 
        "extra": {
          "status": "offline"
        }, 
        "free_bikes": 0, 
        "id": "7ca2b8a874a278dc0feb64ffb29d9686", 
        "latitude": 44.082097904565735, 
        "longitude": 9.906063079833984, 
        "name": "Venere Azzurra", 
        "timestamp": "2017-08-15T04:50:01.338000Z"
      }, 
      {
        "empty_slots": 0, 
        "extra": {
          "status": "offline"
        }, 
        "free_bikes": 0, 
        "id": "0ca5a677fafd8ebfb23be30b41c633a1", 
        "latitude": 44.07411292227033, 
        "longitude": 9.910064935684204, 
        "name": "Lerici Centro", 
        "timestamp": "2017-08-15T04:50:01.340000Z"
      }, 
      {
        "empty_slots": 0, 
        "extra": {
          "status": "offline"
        }, 
        "free_bikes": 0, 
        "id": "046263e44db9e55763a5b6f26200dd19", 
        "latitude": 44.1122091617401, 
        "longitude": 9.958698749542236, 
        "name": "Sarzana - piazza San Giorgio", 
        "timestamp": "2017-08-15T04:50:01.341000Z"
      }, 
      {
        "empty_slots": 0, 
        "extra": {
          "status": "offline"
        }, 
        "free_bikes": 0, 
        "id": "f20c613b7be551e52eff207041df34e3", 
        "latitude": 44.10749469601187, 
        "longitude": 9.968912601470947, 
        "name": "Sarzana - Porta Romana", 
        "timestamp": "2017-08-15T04:50:01.342000Z"
      }, 
      {
        "empty_slots": 0, 
        "extra": {
          "status": "offline"
        }, 
        "free_bikes": 0, 
        "id": "72ddd86ebdc4b574da9f816ac086c812", 
        "latitude": 44.04604903493115, 
        "longitude": 9.984683990478516, 
        "name": "Bocca di Magra", 
        "timestamp": "2017-08-15T04:50:01.342000Z"
      }, 
      {
        "empty_slots": 0, 
        "extra": {
          "status": "offline"
        }, 
        "free_bikes": 0, 
        "id": "a3ae9e8f706dca817ac299e7d656897f", 
        "latitude": 44.0497729, 
        "longitude": 9.990535099999988, 
        "name": "Fiumaretta", 
        "timestamp": "2017-08-15T04:50:01.343000Z"
      }, 
      {
        "empty_slots": 0, 
        "extra": {
          "status": "offline"
        }, 
        "free_bikes": 0, 
        "id": "a1999e82f5f878e9d81c3433a7ed4cf6", 
        "latitude": 44.0644000050782, 
        "longitude": 10.013008117675781, 
        "name": "Area Archeologica Luni", 
        "timestamp": "2017-08-15T04:50:01.345000Z"
      }, 
      {
        "empty_slots": 0, 
        "extra": {
          "status": "offline"
        }, 
        "free_bikes": 0, 
        "id": "9c3827488b4101a136077f49c4c15727", 
        "latitude": 44.10921259226795, 
        "longitude": 9.960391223430634, 
        "name": "Sarzana - Stazione F.S.", 
        "timestamp": "2017-08-15T04:50:01.347000Z"
      }, 
      {
        "empty_slots": 0, 
        "extra": {
          "status": "offline"
        }, 
        "free_bikes": 0, 
        "id": "33f196087447ce8f0ec395246774a182", 
        "latitude": 44.11075711555769, 
        "longitude": 9.96183156967163, 
        "name": "Sarzana - Viale XXI Luglio", 
        "timestamp": "2017-08-15T04:50:01.353000Z"
      }
    ]
  }
}