{
  "network": {
    "company": [
      "Labici Bicicletas P\u00fablicas SL"
    ], 
    "href": "/v2/networks/bicialtea", 
    "id": "bicialtea", 
    "location": {
      "city": "Altea", 
      "country": "ES", 
      "latitude": 38.6029075, 
      "longitude": -0.0450666
    }, 
    "name": "Bicialtea", 
    "stations": [
      {
        "empty_slots": 19, 
        "extra": {
          "slots": "20", 
          "uid": "71"
        }, 
        "free_bikes": 1, 
        "id": "782f3a740fd66acce3a6cf9edf9ff908", 
        "latitude": 38.599885195901, 
        "longitude": -0.047817562198609, 
        "name": "02-Pla\u00e7a del Mediterr\u00e0ni", 
        "timestamp": "2017-08-15T04:49:36.940000Z"
      }, 
      {
        "empty_slots": 15, 
        "extra": {
          "slots": "20", 
          "uid": "70"
        }, 
        "free_bikes": 5, 
        "id": "c2a943ea7e3840796757fb208449a3f9", 
        "latitude": 38.594694805624, 
        "longitude": -0.052050088024109, 
        "name": "01-Sant Pere", 
        "timestamp": "2017-08-15T04:49:36.925000Z"
      }, 
      {
        "empty_slots": 9, 
        "extra": {
          "slots": "10", 
          "uid": "72"
        }, 
        "free_bikes": 1, 
        "id": "71e9d4dcd786b18b6f6ce020c4841f94", 
        "latitude": 38.602157, 
        "longitude": -0.047674, 
        "name": "03-Ajuntament", 
        "timestamp": "2017-08-15T04:49:36.941000Z"
      }, 
      {
        "empty_slots": 13, 
        "extra": {
          "slots": "16", 
          "uid": "73"
        }, 
        "free_bikes": 3, 
        "id": "916a950045fa1d7b2a13e225abc7d711", 
        "latitude": 38.605243, 
        "longitude": -0.044439, 
        "name": "04-Poliesportiu", 
        "timestamp": "2017-08-15T04:49:36.942000Z"
      }, 
      {
        "empty_slots": 13, 
        "extra": {
          "slots": "16", 
          "uid": "74"
        }, 
        "free_bikes": 3, 
        "id": "efb86264b62e52a81a2098a367e0cfba", 
        "latitude": 38.599229, 
        "longitude": -0.057718, 
        "name": "05-Palau Altea", 
        "timestamp": "2017-08-15T04:49:36.943000Z"
      }, 
      {
        "empty_slots": 13, 
        "extra": {
          "slots": "16", 
          "uid": "75"
        }, 
        "free_bikes": 3, 
        "id": "d14b5d168300458049b6364c88cfa4c1", 
        "latitude": 38.628291, 
        "longitude": -0.041907, 
        "name": "06-Altea la Vella", 
        "timestamp": "2017-08-15T04:49:36.944000Z"
      }, 
      {
        "empty_slots": 18, 
        "extra": {
          "slots": "20", 
          "uid": "76"
        }, 
        "free_bikes": 2, 
        "id": "b920e3ab80bfdc126ea9f613137fa40f", 
        "latitude": 38.577410364955, 
        "longitude": -0.064495537853211, 
        "name": "07-Cap Blanch", 
        "timestamp": "2017-08-15T04:49:36.945000Z"
      }, 
      {
        "empty_slots": 14, 
        "extra": {
          "slots": "16", 
          "uid": "77"
        }, 
        "free_bikes": 2, 
        "id": "297e22ad303c11d669b12c603ea0ef8a", 
        "latitude": 38.601483, 
        "longitude": -0.053165, 
        "name": "08-Avda. la Nucia", 
        "timestamp": "2017-08-15T04:49:36.947000Z"
      }, 
      {
        "empty_slots": 12, 
        "extra": {
          "slots": "16", 
          "uid": "78"
        }, 
        "free_bikes": 4, 
        "id": "bba39c98fb3021bf373d860fe1a4289e", 
        "latitude": 38.609338, 
        "longitude": -0.038806, 
        "name": "09-Cap Negret", 
        "timestamp": "2017-08-15T04:49:36.948000Z"
      }, 
      {
        "empty_slots": 16, 
        "extra": {
          "slots": "16", 
          "uid": "79"
        }, 
        "free_bikes": 0, 
        "id": "966568c75fc8612da486a073f7f9b1c3", 
        "latitude": 38.605469, 
        "longitude": -0.048666, 
        "name": "10-Garganes", 
        "timestamp": "2017-08-15T04:49:36.949000Z"
      }, 
      {
        "empty_slots": 18, 
        "extra": {
          "slots": "20", 
          "uid": "80"
        }, 
        "free_bikes": 2, 
        "id": "98558d86d7f70871ac48e38994c7364b", 
        "latitude": 38.588229, 
        "longitude": -0.057608, 
        "name": "11-Club N\u00e0utic", 
        "timestamp": "2017-08-15T04:49:36.950000Z"
      }, 
      {
        "empty_slots": 14, 
        "extra": {
          "slots": "20", 
          "uid": "81"
        }, 
        "free_bikes": 6, 
        "id": "2db99145fb9554e5bd08e4317c90dcb3", 
        "latitude": 38.602786284448, 
        "longitude": -0.045017335987061, 
        "name": "12-Plaza Europa", 
        "timestamp": "2017-08-15T04:49:36.952000Z"
      }
    ]
  }
}