{
  "network": {
    "company": [
      "Comunicare S.r.l."
    ], 
    "href": "/v2/networks/bicincitta-lugano-paradiso", 
    "id": "bicincitta-lugano-paradiso", 
    "location": {
      "city": "Paradiso", 
      "country": "CH", 
      "latitude": 45.9907174, 
      "longitude": 8.945261799999999
    }, 
    "name": "Bicincitt\u00e0", 
    "stations": [
      {
        "empty_slots": 0, 
        "extra": {
          "description": "Lugano", 
          "status": "offline"
        }, 
        "free_bikes": 0, 
        "id": "bb253b957f2f1dae114787aa51b630d7", 
        "latitude": 46.005202, 
        "longitude": 8.952499, 
        "name": "Contrada di Verla", 
        "timestamp": "2017-08-15T04:50:03.568000Z"
      }, 
      {
        "empty_slots": 0, 
        "extra": {
          "description": "Paradiso", 
          "status": "offline"
        }, 
        "free_bikes": 0, 
        "id": "5c49d84b2be37a40e530d2fe40db612f", 
        "latitude": 45.99096885257084, 
        "longitude": 8.943665027618408, 
        "name": "Paradiso Centro", 
        "timestamp": "2017-08-15T04:50:03.572000Z"
      }, 
      {
        "empty_slots": 0, 
        "extra": {
          "description": "Lugano", 
          "status": "offline"
        }, 
        "free_bikes": 0, 
        "id": "0484a93915fc6dd77c7e94c32e927237", 
        "latitude": 46.017556, 
        "longitude": 8.956008, 
        "name": "Stazione Mobile", 
        "timestamp": "2017-08-15T04:50:03.576000Z"
      }, 
      {
        "empty_slots": 0, 
        "extra": {
          "description": "Lugano", 
          "status": "offline"
        }, 
        "free_bikes": 0, 
        "id": "b56889ace8bc3b9f158ab2304553c7ba", 
        "latitude": 46.00572598721853, 
        "longitude": 8.961796760559082, 
        "name": "Campo Marzio", 
        "timestamp": "2017-08-15T04:50:03.570000Z"
      }, 
      {
        "empty_slots": 0, 
        "extra": {
          "description": "Lugano", 
          "status": "offline"
        }, 
        "free_bikes": 0, 
        "id": "0e3ac8675f01e47ea28e8b2364a41fcd", 
        "latitude": 45.985020167375254, 
        "longitude": 8.931970596313477, 
        "name": "Fornaci", 
        "timestamp": "2017-08-15T04:50:03.573000Z"
      }, 
      {
        "empty_slots": 0, 
        "extra": {
          "description": "Lugano", 
          "status": "offline"
        }, 
        "free_bikes": 0, 
        "id": "a25cc7703233a30c3c152d3a4df67509", 
        "latitude": 46.023191, 
        "longitude": 8.959956, 
        "name": "Stadio", 
        "timestamp": "2017-08-15T04:50:03.574000Z"
      }, 
      {
        "empty_slots": 0, 
        "extra": {
          "description": "Lugano", 
          "status": "offline"
        }, 
        "free_bikes": 0, 
        "id": "f1d8ada6aa932ce0fa7e29a77483bc1b", 
        "latitude": 46.01059, 
        "longitude": 8.958023, 
        "name": "USI Universita` della Svizzera Italiana", 
        "timestamp": "2017-08-15T04:50:03.575000Z"
      }
    ]
  }
}