{
  "network": {
    "company": [
      "Comunicare S.r.l."
    ], 
    "href": "/v2/networks/bicincitta-acquarica-del-capo", 
    "id": "bicincitta-acquarica-del-capo", 
    "location": {
      "city": "Acquarica del Capo", 
      "country": "IT", 
      "latitude": 39.9144573, 
      "longitude": 18.2450324
    }, 
    "name": "Bicincitt\u00e0", 
    "stations": [
      {
        "empty_slots": 0, 
        "extra": {
          "description": "via Giusti", 
          "status": "offline"
        }, 
        "free_bikes": 0, 
        "id": "85076989a3c77705e2dfccc021e849c4", 
        "latitude": 39.95791193258086, 
        "longitude": 18.212928771972656, 
        "name": "Taurisano", 
        "timestamp": "2017-08-15T04:50:55.149000Z"
      }, 
      {
        "empty_slots": 0, 
        "extra": {
          "description": "via Repubblica/via 21 Aprile", 
          "status": "offline"
        }, 
        "free_bikes": 0, 
        "id": "1334a36c40a57da75394c3fb1d10e22c", 
        "latitude": 39.90094643698398, 
        "longitude": 18.25929880142212, 
        "name": "Presicce", 
        "timestamp": "2017-08-15T04:50:55.141000Z"
      }, 
      {
        "empty_slots": 0, 
        "extra": {
          "description": "via Moretto", 
          "status": "offline"
        }, 
        "free_bikes": 0, 
        "id": "1c04388c9c46a5565e1bbd3f9616a9bb", 
        "latitude": 39.908946186502554, 
        "longitude": 18.18958282470703, 
        "name": "Gemini", 
        "timestamp": "2017-08-15T04:50:55.147000Z"
      }, 
      {
        "empty_slots": 0, 
        "extra": {
          "description": "Via G. Giannuzzi/ P.za Rimembranza", 
          "status": "offline"
        }, 
        "free_bikes": 0, 
        "id": "c90a901dbc953595f4d47ce2548a7247", 
        "latitude": 39.90815612935616, 
        "longitude": 18.232154846191406, 
        "name": "Acquarica del capo", 
        "timestamp": "2017-08-15T04:50:55.148000Z"
      }
    ]
  }
}