{
  "network": {
    "company": [
      "Comunicare S.r.l."
    ], 
    "href": "/v2/networks/bicincitta-acquaviva-delle-fonti", 
    "id": "bicincitta-acquaviva-delle-fonti", 
    "location": {
      "city": "Acquaviva delle fonti", 
      "country": "IT", 
      "latitude": 40.9303721, 
      "longitude": 16.8414374
    }, 
    "name": "Bicincitt\u00e0", 
    "stations": [
      {
        "empty_slots": 0, 
        "extra": {
          "description": "Piazza Garibaldi", 
          "status": "offline"
        }, 
        "free_bikes": 0, 
        "id": "8f1d4fa7a145d98dca19b5cce0df7828", 
        "latitude": 40.89656516307635, 
        "longitude": 16.8450665473938, 
        "name": "Garibaldi", 
        "timestamp": "2017-08-15T04:49:16.097000Z"
      }, 
      {
        "empty_slots": 0, 
        "extra": {
          "description": "Via De Gasperi", 
          "status": "offline"
        }, 
        "free_bikes": 0, 
        "id": "28ae30fbb7059aa642ac3122d1f22cd0", 
        "latitude": 40.892165423659485, 
        "longitude": 16.8484890460968, 
        "name": "Ex Mattatoio", 
        "timestamp": "2017-08-15T04:49:16.101000Z"
      }, 
      {
        "empty_slots": 0, 
        "extra": {
          "description": "Piazza Aldo Moro", 
          "status": "offline"
        }, 
        "free_bikes": 0, 
        "id": "bca74b7f7c860feac3e130b974042912", 
        "latitude": 40.89281830670585, 
        "longitude": 16.839905977249146, 
        "name": "Stazione FF.SS", 
        "timestamp": "2017-08-15T04:49:16.087000Z"
      }, 
      {
        "empty_slots": 0, 
        "extra": {
          "description": "Via della Repubblica", 
          "status": "offline"
        }, 
        "free_bikes": 0, 
        "id": "f8c13e9a0db553af3f188c83077c7e40", 
        "latitude": 40.903871733521186, 
        "longitude": 16.846879720687866, 
        "name": "Repubblica", 
        "timestamp": "2017-08-15T04:49:16.095000Z"
      }, 
      {
        "empty_slots": 0, 
        "extra": {
          "description": "Piazza M. T. di Calcutta", 
          "status": "offline"
        }, 
        "free_bikes": 0, 
        "id": "1b2aa7d63c5fcca69b2d5ba4eb7ac480", 
        "latitude": 40.901795808908766, 
        "longitude": 16.839627027511597, 
        "name": "Calcutta", 
        "timestamp": "2017-08-15T04:49:16.096000Z"
      }, 
      {
        "empty_slots": 0, 
        "extra": {
          "description": "Via Sammichele", 
          "status": "offline"
        }, 
        "free_bikes": 0, 
        "id": "d25258a692d71caaae1536a5ce145c6d", 
        "latitude": 40.89669492053408, 
        "longitude": 16.84978723526001, 
        "name": "Cimitero", 
        "timestamp": "2017-08-15T04:49:16.098000Z"
      }
    ]
  }
}