{
  "network": {
    "company": [
      "Comunicare S.r.l."
    ], 
    "href": "/v2/networks/bigi", 
    "id": "bigi", 
    "location": {
      "city": "Bergamo", 
      "country": "IT", 
      "latitude": 45.695, 
      "longitude": 9.67
    }, 
    "name": "BiGi", 
    "stations": [
      {
        "empty_slots": 10, 
        "extra": {
          "status": "online"
        }, 
        "free_bikes": 1, 
        "id": "fb3e1a8287aab2ae545c1546a71ae410", 
        "latitude": 45.69474478247094, 
        "longitude": 9.68820333480835, 
        "name": "Pirovano", 
        "timestamp": "2017-08-15T04:47:16.600000Z"
      }, 
      {
        "empty_slots": 6, 
        "extra": {
          "status": "online"
        }, 
        "free_bikes": 2, 
        "id": "c22e15e4910dff3dfc3ac8d3c0f07dbd", 
        "latitude": 45.690824405244534, 
        "longitude": 9.67120349407196, 
        "name": "Paleocapa", 
        "timestamp": "2017-08-15T04:47:16.588000Z"
      }, 
      {
        "empty_slots": 9, 
        "extra": {
          "status": "online"
        }, 
        "free_bikes": 1, 
        "id": "4cc4eebcd7bf7a825d8789922b078269", 
        "latitude": 45.697004143864646, 
        "longitude": 9.667636156082153, 
        "name": "Viale Emanuele", 
        "timestamp": "2017-08-15T04:47:16.590000Z"
      }, 
      {
        "empty_slots": 11, 
        "extra": {
          "status": "online"
        }, 
        "free_bikes": 7, 
        "id": "d1d2d1d22a4958d506eb2c7de9166d4c", 
        "latitude": 45.70669157275197, 
        "longitude": 9.687497913837433, 
        "name": "Bianzana", 
        "timestamp": "2017-08-15T04:47:16.604000Z"
      }, 
      {
        "empty_slots": 10, 
        "extra": {
          "status": "online"
        }, 
        "free_bikes": 7, 
        "id": "d9f04565cf400444cd5061e2e336aac0", 
        "latitude": 45.69561031976172, 
        "longitude": 9.685248881578445, 
        "name": "Borgo Palazzo", 
        "timestamp": "2017-08-15T04:47:16.601000Z"
      }, 
      {
        "empty_slots": 9, 
        "extra": {
          "status": "online"
        }, 
        "free_bikes": 1, 
        "id": "05f936242b83849ce79397d2f7bcee02", 
        "latitude": 45.696485210724546, 
        "longitude": 9.682989120483398, 
        "name": "Sant'Anna", 
        "timestamp": "2017-08-15T04:47:16.597000Z"
      }, 
      {
        "empty_slots": 5, 
        "extra": {
          "status": "online"
        }, 
        "free_bikes": 5, 
        "id": "c7d870fc49ffd0f89594324d9b45c66c", 
        "latitude": 45.701424247361295, 
        "longitude": 9.678208082914352, 
        "name": "Battisti", 
        "timestamp": "2017-08-15T04:47:16.600000Z"
      }, 
      {
        "empty_slots": 1, 
        "extra": {
          "status": "online"
        }, 
        "free_bikes": 8, 
        "id": "7e528b37375300c8a4cca2c9a2c03aea", 
        "latitude": 45.703517562874715, 
        "longitude": 9.67788890004158, 
        "name": "Oberdan", 
        "timestamp": "2017-08-15T04:47:16.599000Z"
      }, 
      {
        "empty_slots": 14, 
        "extra": {
          "status": "online"
        }, 
        "free_bikes": 4, 
        "id": "81808967d247252412fce344225edcc4", 
        "latitude": 45.69477663148314, 
        "longitude": 9.668743908405304, 
        "name": "Matteotti", 
        "timestamp": "2017-08-15T04:47:16.590000Z"
      }, 
      {
        "empty_slots": 1, 
        "extra": {
          "status": "online"
        }, 
        "free_bikes": 17, 
        "id": "2e5e867c6d3473badb56bca4a85f5470", 
        "latitude": 45.692323267696146, 
        "longitude": 9.655503183603287, 
        "name": "Coghetti", 
        "timestamp": "2017-08-15T04:47:16.593000Z"
      }, 
      {
        "empty_slots": 8, 
        "extra": {
          "status": "online"
        }, 
        "free_bikes": 2, 
        "id": "aa7425a0af32f6d4c981e76f516f9c56", 
        "latitude": 45.68712016912151, 
        "longitude": 9.663029462099075, 
        "name": "Tironi", 
        "timestamp": "2017-08-15T04:47:16.594000Z"
      }, 
      {
        "empty_slots": 3, 
        "extra": {
          "status": "online"
        }, 
        "free_bikes": 6, 
        "id": "bca55ea3abe97d268c8fc7aee5fff2a1", 
        "latitude": 45.692455353023725, 
        "longitude": 9.659053087234497, 
        "name": "Palma il Vecchio", 
        "timestamp": "2017-08-15T04:47:16.602000Z"
      }, 
      {
        "empty_slots": 1, 
        "extra": {
          "description": "Via Giosue` Carducci 55", 
          "status": "online"
        }, 
        "free_bikes": 8, 
        "id": "8210b0e3f74af41a8256fa9059cf9fe9", 
        "latitude": 45.68829779430393, 
        "longitude": 9.648214280605316, 
        "name": "Auchan - Carducci", 
        "timestamp": "2017-08-15T04:47:16.605000Z"
      }, 
      {
        "empty_slots": 1, 
        "extra": {
          "status": "online"
        }, 
        "free_bikes": 7, 
        "id": "00076d66cd6fa65f78bd68d8f198ff48", 
        "latitude": 45.687256014182445, 
        "longitude": 9.672346115112305, 
        "name": "Don Bosco", 
        "timestamp": "2017-08-15T04:47:16.595000Z"
      }, 
      {
        "empty_slots": 14, 
        "extra": {
          "status": "online"
        }, 
        "free_bikes": 4, 
        "id": "110fe9185b44943996ba5b49b7d9e403", 
        "latitude": 45.7023973912572, 
        "longitude": 9.685095995664597, 
        "name": "San Fermo", 
        "timestamp": "2017-08-15T04:47:16.603000Z"
      }, 
      {
        "empty_slots": 12, 
        "extra": {
          "status": "online"
        }, 
        "free_bikes": 0, 
        "id": "d689287153d3c6b8389bb9b159f24ca3", 
        "latitude": 45.69571148558362, 
        "longitude": 9.671986699104309, 
        "name": "Cavour", 
        "timestamp": "2017-08-15T04:47:16.589000Z"
      }, 
      {
        "empty_slots": 12, 
        "extra": {
          "status": "online"
        }, 
        "free_bikes": 10, 
        "id": "34b71b05b7e35c0d5f615a4af3a1d6b6", 
        "latitude": 45.69150358226984, 
        "longitude": 9.674022495746613, 
        "name": "Alpini", 
        "timestamp": "2017-08-15T04:47:16.587000Z"
      }, 
      {
        "empty_slots": 11, 
        "extra": {
          "status": "online"
        }, 
        "free_bikes": 1, 
        "id": "7e26b265d93f24148aa01e2857821153", 
        "latitude": 45.69378555666359, 
        "longitude": 9.665868580341339, 
        "name": "Sant'Orsola", 
        "timestamp": "2017-08-15T04:47:16.591000Z"
      }, 
      {
        "empty_slots": 6, 
        "extra": {
          "status": "online"
        }, 
        "free_bikes": 2, 
        "id": "56f932772dfad85340e9e78dcb8383a5", 
        "latitude": 45.69875761516345, 
        "longitude": 9.675676077604294, 
        "name": "Santo Spirito", 
        "timestamp": "2017-08-15T04:47:16.598000Z"
      }, 
      {
        "empty_slots": 6, 
        "extra": {
          "status": "online"
        }, 
        "free_bikes": 4, 
        "id": "bea3732d8dbe90226b0a5662acffdfb5", 
        "latitude": 45.693236617305615, 
        "longitude": 9.663980305194855, 
        "name": "Rezzara", 
        "timestamp": "2017-08-15T04:47:16.592000Z"
      }, 
      {
        "empty_slots": 19, 
        "extra": {
          "description": "Via Angelo Mazzi", 
          "status": "online"
        }, 
        "free_bikes": 0, 
        "id": "322671069a8ac47d8345bcab99a2ad74", 
        "latitude": 45.68650453891639, 
        "longitude": 9.640013444118154, 
        "name": "Ospedale Papa Giovanni XXIII", 
        "timestamp": "2017-08-15T04:47:16.585000Z"
      }, 
      {
        "empty_slots": 5, 
        "extra": {
          "status": "online"
        }, 
        "free_bikes": 2, 
        "id": "b5e38c8a23365800b21718e35e383fef", 
        "latitude": 45.69572349462442, 
        "longitude": 9.658548196676975, 
        "name": "Mazzini", 
        "timestamp": "2017-08-15T04:47:16.606000Z"
      }, 
      {
        "empty_slots": 5, 
        "extra": {
          "status": "online"
        }, 
        "free_bikes": 2, 
        "id": "5cc33d95aaaa8c2bc75b20f4fc3b60d6", 
        "latitude": 45.69455927789097, 
        "longitude": 9.678121730516978, 
        "name": "Maj", 
        "timestamp": "2017-08-15T04:47:16.596000Z"
      }
    ]
  }
}