{
  "network": {
    "company": [
      "Smoove"
    ], 
    "href": "/v2/networks/c-velo", 
    "id": "c-velo", 
    "location": {
      "city": "Clermont-Ferrand", 
      "country": "FR", 
      "latitude": 45.770958, 
      "longitude": 3.073871
    }, 
    "name": "C.V\u00e9lo", 
    "stations": [
      {
        "empty_slots": 9, 
        "extra": {
          "uid": 3
        }, 
        "free_bikes": 13, 
        "id": "bdab68e71f0e6de3ef3b7899de9c4dd7", 
        "latitude": 45.780351, 
        "longitude": 3.083664, 
        "name": "008 Gaillard", 
        "timestamp": "2017-08-15T04:48:35.600000Z"
      }, 
      {
        "empty_slots": 13, 
        "extra": {
          "uid": 35
        }, 
        "free_bikes": 7, 
        "id": "38767fcb8d778691013679bc43a7d373", 
        "latitude": 45.77024, 
        "longitude": 3.10709, 
        "name": "039 Oradou", 
        "timestamp": "2017-08-15T04:48:35.542000Z"
      }, 
      {
        "empty_slots": 9, 
        "extra": {
          "uid": 36
        }, 
        "free_bikes": 9, 
        "id": "f4b608379ade5e38b815483baa1d7f77", 
        "latitude": 45.77506, 
        "longitude": 3.09582, 
        "name": "038 Les Paulines", 
        "timestamp": "2017-08-15T04:48:35.543000Z"
      }, 
      {
        "empty_slots": 12, 
        "extra": {
          "uid": 44
        }, 
        "free_bikes": 8, 
        "id": "f9beb1ab873aa59723576b79f6ea2d8d", 
        "latitude": 45.767952, 
        "longitude": 3.105456, 
        "name": "033 La Fayette", 
        "timestamp": "2017-08-15T04:48:35.553000Z"
      }, 
      {
        "empty_slots": 5, 
        "extra": {
          "uid": 45
        }, 
        "free_bikes": 15, 
        "id": "5dbc8b7df75beafae987ce68b8dd626e", 
        "latitude": 45.76492, 
        "longitude": 3.09343, 
        "name": "032 Liondards", 
        "timestamp": "2017-08-15T04:48:35.559000Z"
      }, 
      {
        "empty_slots": 5, 
        "extra": {
          "uid": 39
        }, 
        "free_bikes": 11, 
        "id": "eaf1179c24847ff82183b9b0df08939b", 
        "latitude": 45.77637, 
        "longitude": 3.07527, 
        "name": "028 Morel Ladeuil", 
        "timestamp": "2017-08-15T04:48:35.565000Z"
      }, 
      {
        "empty_slots": 10, 
        "extra": {
          "uid": 40
        }, 
        "free_bikes": 10, 
        "id": "b4c6f72faec0992908d081b63f19face", 
        "latitude": 45.77934, 
        "longitude": 3.07176, 
        "name": "027 Berthelot", 
        "timestamp": "2017-08-15T04:48:35.566000Z"
      }, 
      {
        "empty_slots": 10, 
        "extra": {
          "uid": 41
        }, 
        "free_bikes": 8, 
        "id": "331aff326389d3d802d50ea5c59c9760", 
        "latitude": 45.78486, 
        "longitude": 3.08022, 
        "name": "026 Clos Notre Dame", 
        "timestamp": "2017-08-15T04:48:35.566000Z"
      }, 
      {
        "empty_slots": 9, 
        "extra": {
          "uid": 25
        }, 
        "free_bikes": 11, 
        "id": "a376dbb7a452dae518810967828dae0a", 
        "latitude": 45.774413, 
        "longitude": 3.093484, 
        "name": "019 Amboise", 
        "timestamp": "2017-08-15T04:48:35.585000Z"
      }, 
      {
        "empty_slots": 4, 
        "extra": {
          "uid": 26
        }, 
        "free_bikes": 16, 
        "id": "51f6ed9e04de512ebcdaee6b3a76f5c1", 
        "latitude": 45.76381, 
        "longitude": 3.100341, 
        "name": "020 Pochet Lagaye", 
        "timestamp": "2017-08-15T04:48:35.581000Z"
      }, 
      {
        "empty_slots": 6, 
        "extra": {
          "uid": 5
        }, 
        "free_bikes": 8, 
        "id": "89acb30e9474bb3f1be8f646cec46809", 
        "latitude": 45.775728, 
        "longitude": 3.086263, 
        "name": "010 Ballainvilliers", 
        "timestamp": "2017-08-15T04:48:35.599000Z"
      }, 
      {
        "empty_slots": 9, 
        "extra": {
          "uid": 8
        }, 
        "free_bikes": 21, 
        "id": "df1a5239e930a43ebbad9bb627a2ad56", 
        "latitude": 45.761139, 
        "longitude": 3.089722, 
        "name": "006 CHU G.Montpied", 
        "timestamp": "2017-08-15T04:48:35.603000Z"
      }, 
      {
        "empty_slots": 23, 
        "extra": {
          "uid": 32
        }, 
        "free_bikes": 19, 
        "id": "e6f10f26aad8d37eee1bf534d14243f7", 
        "latitude": 45.789459, 
        "longitude": 3.104503, 
        "name": "035 Cataroux", 
        "timestamp": "2017-08-15T04:48:35.551000Z"
      }, 
      {
        "empty_slots": 8, 
        "extra": {
          "uid": 33
        }, 
        "free_bikes": 12, 
        "id": "1e9d4f4b2e1d07fd1c7472230abf2d21", 
        "latitude": 45.78605, 
        "longitude": 3.09249, 
        "name": "024 Dumas", 
        "timestamp": "2017-08-15T04:48:35.568000Z"
      }, 
      {
        "empty_slots": 13, 
        "extra": {
          "uid": 1
        }, 
        "free_bikes": 19, 
        "id": "93176cd315c34a1efb632229f0654214", 
        "latitude": 45.77922, 
        "longitude": 3.100944, 
        "name": "002 Gare SNCF", 
        "timestamp": "2017-08-15T04:48:35.609000Z"
      }, 
      {
        "empty_slots": 12, 
        "extra": {
          "uid": 29
        }, 
        "free_bikes": 8, 
        "id": "ed37a25dd1f103caa8ef08b221cb8374", 
        "latitude": 45.777594, 
        "longitude": 3.101163, 
        "name": "040 Parking Gare", 
        "timestamp": "2017-08-15T04:48:35.532000Z"
      }, 
      {
        "empty_slots": 16, 
        "extra": {
          "uid": 30
        }, 
        "free_bikes": 4, 
        "id": "88c5154aba310e8b920832e209ce0433", 
        "latitude": 45.794027, 
        "longitude": 3.117223, 
        "name": "037 Mus\u00e9e d'art Roger Quilliot", 
        "timestamp": "2017-08-15T04:48:35.544000Z"
      }, 
      {
        "empty_slots": 10, 
        "extra": {
          "uid": 31
        }, 
        "free_bikes": 10, 
        "id": "133f3605f0e2a6f9be28597ffdda8fd2", 
        "latitude": 45.793336, 
        "longitude": 3.109383, 
        "name": "036 Rodade", 
        "timestamp": "2017-08-15T04:48:35.550000Z"
      }, 
      {
        "empty_slots": 5, 
        "extra": {
          "uid": 43
        }, 
        "free_bikes": 11, 
        "id": "7c531028460091f4b637e47e1b3ad43d", 
        "latitude": 45.78493, 
        "longitude": 3.10091, 
        "name": "034 R\u00e9publique", 
        "timestamp": "2017-08-15T04:48:35.552000Z"
      }, 
      {
        "empty_slots": 11, 
        "extra": {
          "uid": 37
        }, 
        "free_bikes": 7, 
        "id": "a9dd9f6479ffaf2bc42abded17dc46f8", 
        "latitude": 45.76411, 
        "longitude": 3.08418, 
        "name": "031 Poncillon", 
        "timestamp": "2017-08-15T04:48:35.562000Z"
      }, 
      {
        "empty_slots": 12, 
        "extra": {
          "uid": 34
        }, 
        "free_bikes": 6, 
        "id": "6ad84558eb05e6edf980de93731af0c8", 
        "latitude": 45.77077, 
        "longitude": 3.07785, 
        "name": "029 Regensburg", 
        "timestamp": "2017-08-15T04:48:35.564000Z"
      }, 
      {
        "empty_slots": 16, 
        "extra": {
          "uid": 42
        }, 
        "free_bikes": 4, 
        "id": "23497fb86650f65f67f7011057de3dd8", 
        "latitude": 45.781943, 
        "longitude": 3.085845, 
        "name": "025 Apollinaire", 
        "timestamp": "2017-08-15T04:48:35.567000Z"
      }, 
      {
        "empty_slots": 17, 
        "extra": {
          "uid": 46
        }, 
        "free_bikes": 11, 
        "id": "70cfb8615797a4526c69f070f6568939", 
        "latitude": 45.77364, 
        "longitude": 3.08268, 
        "name": "023 Lagarlaye", 
        "timestamp": "2017-08-15T04:48:35.570000Z"
      }, 
      {
        "empty_slots": 9, 
        "extra": {
          "uid": 28
        }, 
        "free_bikes": 5, 
        "id": "a7e26a7cf1a58cda082b5d66cd7c7766", 
        "latitude": 45.770958, 
        "longitude": 3.073871, 
        "name": "022 Jaures", 
        "timestamp": "2017-08-15T04:48:35.573000Z"
      }, 
      {
        "empty_slots": 9, 
        "extra": {
          "uid": 24
        }, 
        "free_bikes": 9, 
        "id": "c52aeec33b897e1011adb32a4e84c54b", 
        "latitude": 45.77073, 
        "longitude": 3.092246, 
        "name": "018 C\u00f4te Blatin", 
        "timestamp": "2017-08-15T04:48:35.586000Z"
      }, 
      {
        "empty_slots": 11, 
        "extra": {
          "uid": 22
        }, 
        "free_bikes": 5, 
        "id": "6262479ac28335a43c0506580389cc98", 
        "latitude": 45.781105, 
        "longitude": 3.075984, 
        "name": "016 Fontgi\u00e8ve", 
        "timestamp": "2017-08-15T04:48:35.588000Z"
      }, 
      {
        "empty_slots": 9, 
        "extra": {
          "uid": 21
        }, 
        "free_bikes": 11, 
        "id": "86b61a673fb8f486ff1b0e6c614f4f61", 
        "latitude": 45.786465, 
        "longitude": 3.086823, 
        "name": "015 Maison des sports", 
        "timestamp": "2017-08-15T04:48:35.590000Z"
      }, 
      {
        "empty_slots": 6, 
        "extra": {
          "uid": 23
        }, 
        "free_bikes": 18, 
        "id": "367e02ac2288a75adae7afcb3eff3c81", 
        "latitude": 45.784499, 
        "longitude": 3.109901, 
        "name": "017 H\u00f4pital d\u0092Estaing", 
        "timestamp": "2017-08-15T04:48:35.587000Z"
      }, 
      {
        "empty_slots": 14, 
        "extra": {
          "uid": 27
        }, 
        "free_bikes": 10, 
        "id": "d803f241359f56f8fc2abf3bbe5ddb70", 
        "latitude": 45.764626, 
        "longitude": 3.086692, 
        "name": "021 CROUS / Dolet", 
        "timestamp": "2017-08-15T04:48:35.576000Z"
      }, 
      {
        "empty_slots": 9, 
        "extra": {
          "uid": 38
        }, 
        "free_bikes": 11, 
        "id": "84182bd55f94e3b3cdff098f655996e4", 
        "latitude": 45.76914, 
        "longitude": 3.08379, 
        "name": "030 Coubertin", 
        "timestamp": "2017-08-15T04:48:35.563000Z"
      }, 
      {
        "empty_slots": 13, 
        "extra": {
          "uid": 20
        }, 
        "free_bikes": 7, 
        "id": "f883a5ff94ec1ddeb2e75f59f0b78b2b", 
        "latitude": 45.782532, 
        "longitude": 3.094706, 
        "name": "014 Les Carmes", 
        "timestamp": "2017-08-15T04:48:35.591000Z"
      }, 
      {
        "empty_slots": 11, 
        "extra": {
          "uid": 19
        }, 
        "free_bikes": 9, 
        "id": "51ae212f036977c37600a16d36036e83", 
        "latitude": 45.787376, 
        "longitude": 3.099456, 
        "name": "013 1er mai", 
        "timestamp": "2017-08-15T04:48:35.593000Z"
      }, 
      {
        "empty_slots": 12, 
        "extra": {
          "uid": 18
        }, 
        "free_bikes": 8, 
        "id": "06317a54ed384325c0130111e1b1ce57", 
        "latitude": 45.790798, 
        "longitude": 3.111736, 
        "name": "012 Montferrand", 
        "timestamp": "2017-08-15T04:48:35.597000Z"
      }, 
      {
        "empty_slots": 16, 
        "extra": {
          "uid": 17
        }, 
        "free_bikes": 12, 
        "id": "0b8e3c06a9cd38d2879e039d3f0aaffd", 
        "latitude": 45.778483, 
        "longitude": 3.099352, 
        "name": "011 Gare - Terminal routier", 
        "timestamp": "2017-08-15T04:48:35.598000Z"
      }, 
      {
        "empty_slots": 6, 
        "extra": {
          "uid": 10
        }, 
        "free_bikes": 4, 
        "id": "3b88ca34ea75cbd3068d2f9bbe61f0e7", 
        "latitude": 45.776049, 
        "longitude": 3.068965, 
        "name": "009 Chamali\u00e8res Mairie", 
        "timestamp": "2017-08-15T04:48:35.599000Z"
      }, 
      {
        "empty_slots": 2, 
        "extra": {
          "uid": 4
        }, 
        "free_bikes": 16, 
        "id": "9121a5a826f89c3f6a7082f2f53ba2d4", 
        "latitude": 45.780988, 
        "longitude": 3.091287, 
        "name": "007 Delille", 
        "timestamp": "2017-08-15T04:48:35.601000Z"
      }, 
      {
        "empty_slots": 15, 
        "extra": {
          "uid": 7
        }, 
        "free_bikes": 15, 
        "id": "63f82d63b44ace925ef9e95bc0b7a189", 
        "latitude": 45.771624, 
        "longitude": 3.083489, 
        "name": "005 Salins", 
        "timestamp": "2017-08-15T04:48:35.604000Z"
      }, 
      {
        "empty_slots": 19, 
        "extra": {
          "uid": 9
        }, 
        "free_bikes": 11, 
        "id": "eaac9030cf83f54f21fcb95b169e4318", 
        "latitude": 45.758736, 
        "longitude": 3.113573, 
        "name": "004 Campus", 
        "timestamp": "2017-08-15T04:48:35.605000Z"
      }, 
      {
        "empty_slots": 20, 
        "extra": {
          "uid": 6
        }, 
        "free_bikes": 10, 
        "id": "465fd4fa56a4ceb9ee9688b5bcf29c0d", 
        "latitude": 45.771841, 
        "longitude": 3.090066, 
        "name": "003 Universit\u00e9s", 
        "timestamp": "2017-08-15T04:48:35.607000Z"
      }, 
      {
        "empty_slots": 7, 
        "extra": {
          "uid": 2
        }, 
        "free_bikes": 17, 
        "id": "03cf89c71748f08a86fd6447a571c963", 
        "latitude": 45.777457, 
        "longitude": 3.08131, 
        "name": "001 Jaude", 
        "timestamp": "2017-08-15T04:48:35.610000Z"
      }
    ]
  }
}