{
  "network": {
    "company": [
      "DB Rent GmbH"
    ], 
    "href": "/v2/networks/callabike-stuttgart", 
    "id": "callabike-stuttgart", 
    "location": {
      "city": "Stuttgart", 
      "country": "DE", 
      "latitude": 48.779209, 
      "longitude": 9.1772152
    }, 
    "name": "Call-A-Bike Stuttgart", 
    "stations": [
      {
        "empty_slots": null, 
        "extra": {}, 
        "free_bikes": 12, 
        "id": "1aae2f414ebe955ccc63fe905ab365dc", 
        "latitude": 48.7554, 
        "longitude": 9.18909, 
        "name": "7835 Degerloch (Pedelec vorhanden)", 
        "timestamp": "2017-02-22T13:16:32.693000Z"
      }, 
      {
        "empty_slots": null, 
        "extra": {}, 
        "free_bikes": 13, 
        "id": "848903509100c62e235ba05916cad856", 
        "latitude": 48.7695, 
        "longitude": 9.18058, 
        "name": "7145 Olgastra\u00dfe (Pedelec vorhanden)", 
        "timestamp": "2017-02-22T13:16:32.695000Z"
      }, 
      {
        "empty_slots": null, 
        "extra": {}, 
        "free_bikes": 6, 
        "id": "78da86c0dd85955cecd7e674fb3539e6", 
        "latitude": 48.7645, 
        "longitude": 9.16811, 
        "name": "7400 Marienplatz (Pedelec vorhanden)", 
        "timestamp": "2017-02-22T13:16:32.696000Z"
      }, 
      {
        "empty_slots": null, 
        "extra": {}, 
        "free_bikes": 11, 
        "id": "001a52cd7e85b18898110553819fc29c", 
        "latitude": 48.7711, 
        "longitude": 9.17874, 
        "name": "7140 Wilhelmsplatz (Pedelec vorhanden)", 
        "timestamp": "2017-02-22T13:16:32.697000Z"
      }, 
      {
        "empty_slots": null, 
        "extra": {}, 
        "free_bikes": 5, 
        "id": "f361fa80916bb19808deff9036932521", 
        "latitude": 48.77069512728191, 
        "longitude": 9.17304189727535, 
        "name": "7130 T\u00fcbinger Stra\u00dfe (Pedelec vorhanden)", 
        "timestamp": "2017-02-22T13:16:32.698000Z"
      }, 
      {
        "empty_slots": null, 
        "extra": {}, 
        "free_bikes": 8, 
        "id": "b03c518db4c2f5e05026070ba1e66fd3", 
        "latitude": 48.7732, 
        "longitude": 9.17801, 
        "name": "7110 Eberhardstra\u00dfe (Pedelec vorhanden)", 
        "timestamp": "2017-02-22T13:16:32.699000Z"
      }, 
      {
        "empty_slots": null, 
        "extra": {}, 
        "free_bikes": 4, 
        "id": "b3fac4db0085de026bfae626462a5447", 
        "latitude": 48.7737, 
        "longitude": 9.18057, 
        "name": "7115 Leonhardsplatz", 
        "timestamp": "2017-02-22T13:16:32.700000Z"
      }, 
      {
        "empty_slots": null, 
        "extra": {}, 
        "free_bikes": 17, 
        "id": "3a541f1df3a4e9097b104f5409c9e3da", 
        "latitude": 48.7487, 
        "longitude": 9.16875, 
        "name": "7830 Degerloch (Pedelec vorhanden)", 
        "timestamp": "2017-02-22T13:16:32.701000Z"
      }, 
      {
        "empty_slots": null, 
        "extra": {}, 
        "free_bikes": 6, 
        "id": "981d2a20288966853dfe2ef0972ca9cc", 
        "latitude": 48.7749, 
        "longitude": 9.17923, 
        "name": "7102 Rathaus (Pedelec vorhanden)", 
        "timestamp": "2017-02-22T13:16:32.702000Z"
      }, 
      {
        "empty_slots": null, 
        "extra": {}, 
        "free_bikes": 7, 
        "id": "82083d95559593bfed9a7749d4e985d3", 
        "latitude": 48.7621, 
        "longitude": 9.16003, 
        "name": "7410 Erwin-Schoettle-Platz", 
        "timestamp": "2017-02-22T13:16:32.702000Z"
      }, 
      {
        "empty_slots": null, 
        "extra": {}, 
        "free_bikes": 8, 
        "id": "112a30831a0547cb7d08d6699bbead21", 
        "latitude": 48.774812459613656, 
        "longitude": 9.171955602624319, 
        "name": "7120 Roteb\u00fchlplatz (Pedelec vorhanden)", 
        "timestamp": "2017-02-22T13:16:32.703000Z"
      }, 
      {
        "empty_slots": null, 
        "extra": {}, 
        "free_bikes": 7, 
        "id": "b6cc3c99653f127ba46c5f4aeefe011e", 
        "latitude": 48.777, 
        "longitude": 9.18565, 
        "name": "7060 Landesbibliothek (Pedelec vorhanden)", 
        "timestamp": "2017-02-22T13:16:32.704000Z"
      }, 
      {
        "empty_slots": null, 
        "extra": {}, 
        "free_bikes": 2, 
        "id": "b75ecb9225b3c2d59da05c5d53b895c4", 
        "latitude": 48.7723, 
        "longitude": 9.16437, 
        "name": "7315 Feuersee (Pedelec)", 
        "timestamp": "2017-02-22T13:16:32.705000Z"
      }, 
      {
        "empty_slots": null, 
        "extra": {}, 
        "free_bikes": 6, 
        "id": "f777d634404302d1a732b549eaf5f2aa", 
        "latitude": 48.7773, 
        "longitude": 9.17387, 
        "name": "7128 Theodor-Heuss-Stra\u00dfe (Pedelec vorhanden)", 
        "timestamp": "2017-02-22T13:16:32.706000Z"
      }, 
      {
        "empty_slots": null, 
        "extra": {}, 
        "free_bikes": 2, 
        "id": "24ca55cb3cab28fb4e638885b47997ff", 
        "latitude": 48.7781, 
        "longitude": 9.17621, 
        "name": "7035 Kleiner Schlo\u00dfplatz", 
        "timestamp": "2017-02-22T13:16:32.707000Z"
      }, 
      {
        "empty_slots": null, 
        "extra": {}, 
        "free_bikes": 5, 
        "id": "c5f4f225fa2bddba08244f195e8a48ca", 
        "latitude": 48.75937, 
        "longitude": 9.15393, 
        "name": "7420 B\u00f6heimstra\u00dfe", 
        "timestamp": "2017-02-22T13:16:32.707000Z"
      }, 
      {
        "empty_slots": null, 
        "extra": {}, 
        "free_bikes": 27, 
        "id": "f83df59866f4cfae0a41c16fb8acda90", 
        "latitude": 48.7708, 
        "longitude": 9.15868, 
        "name": "7310 Schwabstra\u00dfe (Pedelec vorhanden)", 
        "timestamp": "2017-02-22T13:16:32.708000Z"
      }, 
      {
        "empty_slots": null, 
        "extra": {}, 
        "free_bikes": 5, 
        "id": "47076033b375a35c23e707a53da799c4", 
        "latitude": 48.77956539129864, 
        "longitude": 9.176801013209722, 
        "name": "7030 Theodor-Heuss-Stra\u00dfe (Pedelec vorhanden)", 
        "timestamp": "2017-02-22T13:16:32.709000Z"
      }, 
      {
        "empty_slots": null, 
        "extra": {}, 
        "free_bikes": 13, 
        "id": "5618bb0539fcddee635d5bb48e662e90", 
        "latitude": 48.780068408444826, 
        "longitude": 9.191205816724203, 
        "name": "7065 Jugendherberge (Pedelec vorhanden)", 
        "timestamp": "2017-02-22T13:16:32.710000Z"
      }, 
      {
        "empty_slots": null, 
        "extra": {}, 
        "free_bikes": 6, 
        "id": "bbe1ce05856b1f816c037cf08834ffd4", 
        "latitude": 48.779, 
        "longitude": 9.16751, 
        "name": "7320 Breitscheidstra\u00dfe (Pedelec vorhanden)", 
        "timestamp": "2017-02-22T13:16:32.711000Z"
      }, 
      {
        "empty_slots": null, 
        "extra": {}, 
        "free_bikes": 9, 
        "id": "918145d82cd552e5caa06b0a04b2e382", 
        "latitude": 48.7767, 
        "longitude": 9.16221, 
        "name": "7308 Johannesstra\u00dfe", 
        "timestamp": "2017-02-22T13:16:32.712000Z"
      }, 
      {
        "empty_slots": null, 
        "extra": {}, 
        "free_bikes": 7, 
        "id": "42f959835f551cfe83ddd79f7ab7ed66", 
        "latitude": 48.781907, 
        "longitude": 9.18029, 
        "name": "7016 K\u00f6nigstra\u00dfe (Pedelec vorhanden)", 
        "timestamp": "2017-02-22T13:16:32.713000Z"
      }, 
      {
        "empty_slots": null, 
        "extra": {}, 
        "free_bikes": 10, 
        "id": "9af12e115821bacd68dd11713eb34885", 
        "latitude": 48.782572, 
        "longitude": 9.18189, 
        "name": "7010 K\u00f6nigstra\u00dfe (Pedelec vorhanden)", 
        "timestamp": "2017-02-22T13:16:32.714000Z"
      }, 
      {
        "empty_slots": null, 
        "extra": {}, 
        "free_bikes": 8, 
        "id": "33702eb2c1a888bffd00d271a97cdf02", 
        "latitude": 48.7829, 
        "longitude": 9.17978, 
        "name": "7014 Lautenschlagerstra\u00dfe (Pedelec vorhanden)", 
        "timestamp": "2017-02-22T13:16:32.715000Z"
      }, 
      {
        "empty_slots": null, 
        "extra": {}, 
        "free_bikes": 14, 
        "id": "a42ae7dfa99b79488fa371fa02db317a", 
        "latitude": 48.7824, 
        "longitude": 9.17539, 
        "name": "7020 Universit\u00e4t", 
        "timestamp": "2017-02-22T13:16:32.716000Z"
      }, 
      {
        "empty_slots": null, 
        "extra": {}, 
        "free_bikes": 22, 
        "id": "7cccf70ec17386a8da48fc235dde28c3", 
        "latitude": 48.7752, 
        "longitude": 9.15528, 
        "name": "7300 Bebelstra\u00dfe (Pedelec vorhanden)", 
        "timestamp": "2017-02-22T13:16:32.717000Z"
      }, 
      {
        "empty_slots": null, 
        "extra": {}, 
        "free_bikes": 17, 
        "id": "0220ad7bd5ad89442561311a5c96b34f", 
        "latitude": 48.7566, 
        "longitude": 9.14439, 
        "name": "7425 S\u00fcdheimer Platz (Pedelec vorhanden)", 
        "timestamp": "2017-02-22T13:16:32.718000Z"
      }, 
      {
        "empty_slots": null, 
        "extra": {}, 
        "free_bikes": 20, 
        "id": "5882b7e189558eb0a52ef87e53a9921d", 
        "latitude": 48.7807, 
        "longitude": 9.15907, 
        "name": "7335 Johannesstra\u00dfe (Pedelec vorhanden)", 
        "timestamp": "2017-02-22T13:16:32.718000Z"
      }, 
      {
        "empty_slots": null, 
        "extra": {}, 
        "free_bikes": 8, 
        "id": "ccb76b1556a7a039bc986fd5e9a90792", 
        "latitude": 48.781, 
        "longitude": 9.20823, 
        "name": "7540 Wagenburgstra\u00dfe (Pedelec vorhanden)", 
        "timestamp": "2017-02-22T13:16:32.719000Z"
      }, 
      {
        "empty_slots": null, 
        "extra": {}, 
        "free_bikes": 2, 
        "id": "e6cff5da85d4e029d8317930c1b7b57b", 
        "latitude": 48.7865, 
        "longitude": 9.19071, 
        "name": "7070 Neckartor (Pedelec)", 
        "timestamp": "2017-02-22T13:16:32.720000Z"
      }, 
      {
        "empty_slots": null, 
        "extra": {}, 
        "free_bikes": 17, 
        "id": "83ce1fd59d93b06584f74db0ece01493", 
        "latitude": 48.7755, 
        "longitude": 9.14684, 
        "name": "7340 Paul Gerhardt Platz (Pedelec vorhanden)", 
        "timestamp": "2017-02-22T13:16:32.721000Z"
      }, 
      {
        "empty_slots": null, 
        "extra": {}, 
        "free_bikes": 5, 
        "id": "3f28843b3f361f183ecc91059f463804", 
        "latitude": 48.7417, 
        "longitude": 9.21826, 
        "name": "7840 Sillenbuch (Pedelec vorhanden)", 
        "timestamp": "2017-02-22T13:16:32.722000Z"
      }, 
      {
        "empty_slots": null, 
        "extra": {}, 
        "free_bikes": 19, 
        "id": "994cd1a3ea7a54b978e4888e33e0f4ea", 
        "latitude": 48.7867, 
        "longitude": 9.16239, 
        "name": "7240 Herdweg (Pedelec vorhanden)", 
        "timestamp": "2017-02-22T13:16:32.722000Z"
      }, 
      {
        "empty_slots": null, 
        "extra": {}, 
        "free_bikes": 10, 
        "id": "5b8ac2755e8725fa9fd5a9c2a7ee1ea4", 
        "latitude": 48.78588029408467, 
        "longitude": 9.20798900572776, 
        "name": "7525 Ostendplatz (Pedelec vorhanden)", 
        "timestamp": "2017-02-22T13:16:32.723000Z"
      }, 
      {
        "empty_slots": null, 
        "extra": {}, 
        "free_bikes": 9, 
        "id": "79337eb3e9ddd052b3102a5054af2031", 
        "latitude": 48.7303, 
        "longitude": 9.14626, 
        "name": "7820 M\u00f6hringen (Pedelec vorhanden)", 
        "timestamp": "2017-02-22T13:16:32.724000Z"
      }, 
      {
        "empty_slots": null, 
        "extra": {}, 
        "free_bikes": 17, 
        "id": "de5a66a4873b98e8cd0cfc82a9772c88", 
        "latitude": 48.799302, 
        "longitude": 9.174107, 
        "name": "7210 Stresemannstra\u00dfe", 
        "timestamp": "2017-02-22T13:16:32.725000Z"
      }, 
      {
        "empty_slots": null, 
        "extra": {}, 
        "free_bikes": 7, 
        "id": "8f3aa477f5327b8fd112a92fc172dc78", 
        "latitude": 48.7889, 
        "longitude": 9.23538, 
        "name": "7635 Mercedes-Benz-Museum", 
        "timestamp": "2017-02-22T13:16:32.726000Z"
      }, 
      {
        "empty_slots": null, 
        "extra": {}, 
        "free_bikes": 10, 
        "id": "4120b2f1d550ef0f2193de289e914fbf", 
        "latitude": 48.7598, 
        "longitude": 9.25423, 
        "name": "7850 Hedelfingen (Pedelec vorhanden)", 
        "timestamp": "2017-02-22T13:16:32.726000Z"
      }, 
      {
        "empty_slots": null, 
        "extra": {}, 
        "free_bikes": 8, 
        "id": "b851bd20d65468671ee8fc6be5637d6d", 
        "latitude": 48.8025, 
        "longitude": 9.21579, 
        "name": "7610 Wilhelmsplatz (Pedelec vorhanden)", 
        "timestamp": "2017-02-22T13:16:32.727000Z"
      }, 
      {
        "empty_slots": null, 
        "extra": {}, 
        "free_bikes": 20, 
        "id": "527036acecbeac51834d144ed6f18dfc", 
        "latitude": 48.8017, 
        "longitude": 9.2183, 
        "name": "7600 Bad Cannstatt Bahnhof (Pedelec vorhanden)", 
        "timestamp": "2017-02-22T13:16:32.728000Z"
      }, 
      {
        "empty_slots": null, 
        "extra": {}, 
        "free_bikes": 19, 
        "id": "d1a571cb1063969bf003bf923f3d9764", 
        "latitude": 48.810089, 
        "longitude": 9.182408, 
        "name": "7250 Pragsattel (Pedelec vorhanden)", 
        "timestamp": "2017-02-22T13:16:32.729000Z"
      }, 
      {
        "empty_slots": null, 
        "extra": {}, 
        "free_bikes": 9, 
        "id": "6af6d21de381f8954a01412281b5ad46", 
        "latitude": 48.7297, 
        "longitude": 9.1116875, 
        "name": "7810 Vaihingen (Pedelec vorhanden)", 
        "timestamp": "2017-02-22T13:16:32.730000Z"
      }, 
      {
        "empty_slots": null, 
        "extra": {}, 
        "free_bikes": 7, 
        "id": "312a61e0b6a31c15bbde3fd0573a22ca", 
        "latitude": 48.83125, 
        "longitude": 9.17448, 
        "name": "7730 Zuffenhausen (Pedelec vorhanden)", 
        "timestamp": "2017-02-22T13:16:32.731000Z"
      }, 
      {
        "empty_slots": null, 
        "extra": {}, 
        "free_bikes": 7, 
        "id": "f894f94a1157e0559950c9bb3ad28296", 
        "latitude": 48.833, 
        "longitude": 9.21736, 
        "name": "7690 Seeblickweg (Pedelec vorhanden)", 
        "timestamp": "2017-02-22T13:16:32.732000Z"
      }
    ]
  }
}