{
  "network": {
    "company": [
      "DB Rent GmbH"
    ], 
    "href": "/v2/networks/callabike-luneburg", 
    "id": "callabike-luneburg", 
    "location": {
      "city": "L\u00fcneburg", 
      "country": "DE", 
      "latitude": 53.2390538, 
      "longitude": 10.4226391
    }, 
    "name": "Call-A-Bike L\u00fcneburg", 
    "stations": [
      {
        "empty_slots": null, 
        "extra": {}, 
        "free_bikes": 17, 
        "id": "05945d7c43ef806a406c0f10b702de32", 
        "latitude": 53.250573, 
        "longitude": 10.407373, 
        "name": "2110 Markt / Am Ochsenmarkt", 
        "timestamp": "2017-02-22T13:13:13.034000Z"
      }, 
      {
        "empty_slots": null, 
        "extra": {}, 
        "free_bikes": 13, 
        "id": "72cd6b15dfe7abdb558479cb39080ba7", 
        "latitude": 53.249466, 
        "longitude": 10.419234, 
        "name": "2140 Bahnhof / Bahnhofstra\u00dfe", 
        "timestamp": "2017-02-22T13:13:13.035000Z"
      }, 
      {
        "empty_slots": null, 
        "extra": {}, 
        "free_bikes": 9, 
        "id": "7b8dd79fefd4688097663a4334e1959e", 
        "latitude": 53.246081, 
        "longitude": 10.409302, 
        "name": "2100 Am Sande/Rote Stra\u00dfe", 
        "timestamp": "2017-02-22T13:13:13.036000Z"
      }, 
      {
        "empty_slots": null, 
        "extra": {}, 
        "free_bikes": 7, 
        "id": "f541013a7facd64051cfe378d211f352", 
        "latitude": 53.250143, 
        "longitude": 10.3837, 
        "name": "2130 Leuphana Campus / Volgershall", 
        "timestamp": "2017-02-22T13:13:13.037000Z"
      }, 
      {
        "empty_slots": null, 
        "extra": {}, 
        "free_bikes": 0, 
        "id": "3a682bbd68f14c4da95ec754e444013f", 
        "latitude": 53.241014, 
        "longitude": 10.411759, 
        "name": "2150 Leuphana Campus Rotes Feld / Kefersteinstra\u00dfe", 
        "timestamp": "2017-02-22T13:13:13.038000Z"
      }, 
      {
        "empty_slots": null, 
        "extra": {}, 
        "free_bikes": 4, 
        "id": "617a5db443cd0360cc6e8a9f0aafec1b", 
        "latitude": 53.229943, 
        "longitude": 10.401333, 
        "name": "2120 Leuphana Campus / Scharnhorststra\u00dfe", 
        "timestamp": "2017-02-22T13:13:13.039000Z"
      }, 
      {
        "empty_slots": null, 
        "extra": {}, 
        "free_bikes": 11, 
        "id": "dbaa3452fe245266ff991fac87628ecb", 
        "latitude": 53.253696, 
        "longitude": 10.433513, 
        "name": "2160 Hanseviertel L\u00fcneburg/Tartuer Stra\u00dfe", 
        "timestamp": "2017-02-22T13:13:13.032000Z"
      }
    ]
  }
}