{
  "network": {
    "company": [
      "Motivate International, Inc.", 
      "PBSC Urban Solutions"
    ], 
    "gbfs_href": "https://gbfs.capitalbikeshare.com/gbfs/gbfs.json", 
    "href": "/v2/networks/capital-bikeshare", 
    "id": "capital-bikeshare", 
    "location": {
      "city": "Washington, DC", 
      "country": "US", 
      "latitude": 38.8967584, 
      "longitude": -77.03701629999999
    }, 
    "name": "Capital BikeShare", 
    "stations": [
      {
        "empty_slots": 3, 
        "extra": {
          "address": null, 
          "last_updated": 1502717264, 
          "renting": 1, 
          "returning": 1, 
          "uid": "430"
        }, 
        "free_bikes": 10, 
        "id": "7b35012cb8e0b6530228e4cca3b71a56", 
        "latitude": 38.931911, 
        "longitude": -77.219261, 
        "name": "Jones Branch & Westbranch Dr", 
        "timestamp": "2017-08-15T04:49:25.963000Z"
      }, 
      {
        "empty_slots": 6, 
        "extra": {
          "address": null, 
          "last_updated": 1502701310, 
          "renting": 1, 
          "returning": 1, 
          "uid": "434"
        }, 
        "free_bikes": 8, 
        "id": "5375eacf8a5e0a416481633d0c89fa22", 
        "latitude": 38.962524, 
        "longitude": -77.361902, 
        "name": "Town Center Pkwy & Bowman Towne Dr", 
        "timestamp": "2017-08-15T04:49:25.959000Z"
      }, 
      {
        "empty_slots": 19, 
        "extra": {
          "address": null, 
          "last_updated": 1502766630, 
          "renting": 1, 
          "returning": 1, 
          "uid": "473"
        }, 
        "free_bikes": 0, 
        "id": "7e5dfbd097bc57ca0d02e4e329353d0a", 
        "latitude": 38.905368, 
        "longitude": -77.065149, 
        "name": "Potomac & M St NW", 
        "timestamp": "2017-08-15T04:49:26.348000Z"
      }, 
      {
        "empty_slots": 18, 
        "extra": {
          "address": null, 
          "last_updated": 1502770181, 
          "renting": 1, 
          "returning": 1, 
          "uid": "443"
        }, 
        "free_bikes": 5, 
        "id": "5d2669a18b18cc8214437e30ed666975", 
        "latitude": 38.892441, 
        "longitude": -77.048947, 
        "name": "22nd St & Constitution Ave NW", 
        "timestamp": "2017-08-15T04:49:25.931000Z"
      }, 
      {
        "empty_slots": 7, 
        "extra": {
          "address": null, 
          "last_updated": 1502771211, 
          "renting": 1, 
          "returning": 1, 
          "uid": "2"
        }, 
        "free_bikes": 4, 
        "id": "f6738240b9295f642cc22bdcfa7db14c", 
        "latitude": 38.85725, 
        "longitude": -77.05332, 
        "name": "18th & Eads St.", 
        "timestamp": "2017-08-15T04:49:26.139000Z"
      }, 
      {
        "empty_slots": 3, 
        "extra": {
          "address": null, 
          "last_updated": 1502765326, 
          "renting": 1, 
          "returning": 1, 
          "uid": "4"
        }, 
        "free_bikes": 8, 
        "id": "8ea1439373d92b388bde65541d9a3ecb", 
        "latitude": 38.86017, 
        "longitude": -77.049593, 
        "name": "15th & Crystal Dr", 
        "timestamp": "2017-08-15T04:49:26.236000Z"
      }, 
      {
        "empty_slots": 3, 
        "extra": {
          "address": null, 
          "last_updated": 1502766405, 
          "renting": 1, 
          "returning": 1, 
          "uid": "5"
        }, 
        "free_bikes": 8, 
        "id": "992a96e7fe699562dd4abf00cc7dc5fa", 
        "latitude": 38.857866, 
        "longitude": -77.05949, 
        "name": "Aurora Hills Community Ctr/18th & Hayes St", 
        "timestamp": "2017-08-15T04:49:26.336000Z"
      }, 
      {
        "empty_slots": 12, 
        "extra": {
          "address": null, 
          "last_updated": 1502760889, 
          "renting": 1, 
          "returning": 1, 
          "uid": "6"
        }, 
        "free_bikes": 7, 
        "id": "2b35f7e4d53a2e770e80744fba8d237b", 
        "latitude": 38.862303, 
        "longitude": -77.059936, 
        "name": "Pentagon City Metro / 12th & S Hayes St", 
        "timestamp": "2017-08-15T04:49:25.974000Z"
      }, 
      {
        "empty_slots": 3, 
        "extra": {
          "address": null, 
          "last_updated": 1502767230, 
          "renting": 1, 
          "returning": 1, 
          "uid": "7"
        }, 
        "free_bikes": 12, 
        "id": "313ba11dd4f0a732823adf018a37a38d", 
        "latitude": 38.8637, 
        "longitude": -77.0633, 
        "name": "S Joyce & Army Navy Dr", 
        "timestamp": "2017-08-15T04:49:26.055000Z"
      }, 
      {
        "empty_slots": 4, 
        "extra": {
          "address": null, 
          "last_updated": 1502766744, 
          "renting": 1, 
          "returning": 1, 
          "uid": "9"
        }, 
        "free_bikes": 7, 
        "id": "caf2239137edf00b2548cba0858b12d6", 
        "latitude": 38.8629, 
        "longitude": -77.0528, 
        "name": "12th & Army Navy Dr", 
        "timestamp": "2017-08-15T04:49:26.215000Z"
      }, 
      {
        "empty_slots": 14, 
        "extra": {
          "address": null, 
          "last_updated": 1502753160, 
          "renting": 1, 
          "returning": 1, 
          "uid": "10"
        }, 
        "free_bikes": 4, 
        "id": "5b49dbac828112155e0c8a38e8831fd4", 
        "latitude": 38.848441, 
        "longitude": -77.051516, 
        "name": "27th & Crystal Dr", 
        "timestamp": "2017-08-15T04:49:26.092000Z"
      }, 
      {
        "empty_slots": 6, 
        "extra": {
          "address": null, 
          "last_updated": 1502761931, 
          "renting": 1, 
          "returning": 1, 
          "uid": "11"
        }, 
        "free_bikes": 5, 
        "id": "ed127260e192fdcd6b20b353b31e0ffb", 
        "latitude": 38.8426, 
        "longitude": -77.0502, 
        "name": "S Glebe & Potomac Ave", 
        "timestamp": "2017-08-15T04:49:26.091000Z"
      }, 
      {
        "empty_slots": 12, 
        "extra": {
          "address": null, 
          "last_updated": 1502754253, 
          "renting": 1, 
          "returning": 1, 
          "uid": "12"
        }, 
        "free_bikes": 5, 
        "id": "0507519e38a639154971267f533add36", 
        "latitude": 38.8533, 
        "longitude": -77.0498, 
        "name": "23rd & Crystal Dr", 
        "timestamp": "2017-08-15T04:49:26.094000Z"
      }, 
      {
        "empty_slots": 3, 
        "extra": {
          "address": null, 
          "last_updated": 1502755055, 
          "renting": 1, 
          "returning": 1, 
          "uid": "13"
        }, 
        "free_bikes": 8, 
        "id": "18a5943348b58cd3fb96d580ee9628ae", 
        "latitude": 38.850688, 
        "longitude": -77.05152, 
        "name": "26th & S Clark St", 
        "timestamp": "2017-08-15T04:49:26.093000Z"
      }, 
      {
        "empty_slots": 15, 
        "extra": {
          "address": null, 
          "last_updated": 1502769746, 
          "renting": 1, 
          "returning": 1, 
          "uid": "14"
        }, 
        "free_bikes": 0, 
        "id": "de26200ef9b81d9c4af0afbc9729a7ee", 
        "latitude": 38.9003, 
        "longitude": -77.0429, 
        "name": "19th St & Pennsylvania Ave NW", 
        "timestamp": "2017-08-15T04:49:26.095000Z"
      }, 
      {
        "empty_slots": 19, 
        "extra": {
          "address": null, 
          "last_updated": 1502770850, 
          "renting": 1, 
          "returning": 1, 
          "uid": "15"
        }, 
        "free_bikes": 6, 
        "id": "bf98c3c000024b44734595de378845f3", 
        "latitude": 38.9176, 
        "longitude": -77.0321, 
        "name": "14th & V St NW", 
        "timestamp": "2017-08-15T04:49:26.094000Z"
      }, 
      {
        "empty_slots": 10, 
        "extra": {
          "address": null, 
          "last_updated": 1502770973, 
          "renting": 1, 
          "returning": 1, 
          "uid": "16"
        }, 
        "free_bikes": 15, 
        "id": "a5d0ef943e552cc78205d5f8ad7f5731", 
        "latitude": 38.929464, 
        "longitude": -77.027822, 
        "name": "11th & Kenyon St NW", 
        "timestamp": "2017-08-15T04:49:26.098000Z"
      }, 
      {
        "empty_slots": 16, 
        "extra": {
          "address": null, 
          "last_updated": 1502771139, 
          "renting": 1, 
          "returning": 1, 
          "uid": "17"
        }, 
        "free_bikes": 17, 
        "id": "48ccd21f99b21638f3e02fdbb6b51930", 
        "latitude": 38.926088, 
        "longitude": -77.036536, 
        "name": "16th & Harvard St NW", 
        "timestamp": "2017-08-15T04:49:26.096000Z"
      }, 
      {
        "empty_slots": 7, 
        "extra": {
          "address": null, 
          "last_updated": 1502770482, 
          "renting": 1, 
          "returning": 1, 
          "uid": "18"
        }, 
        "free_bikes": 8, 
        "id": "e6faa0d8e3bf0068cc6dd0d32aa34938", 
        "latitude": 38.922925, 
        "longitude": -77.042581, 
        "name": "Adams Mill & Columbia Rd NW", 
        "timestamp": "2017-08-15T04:49:26.099000Z"
      }, 
      {
        "empty_slots": 8, 
        "extra": {
          "address": null, 
          "last_updated": 1502767535, 
          "renting": 1, 
          "returning": 1, 
          "uid": "19"
        }, 
        "free_bikes": 11, 
        "id": "6d2526123ca139eb0834b7c127f041c5", 
        "latitude": 38.9268, 
        "longitude": -77.0322, 
        "name": "14th & Harvard St NW", 
        "timestamp": "2017-08-15T04:49:26.099000Z"
      }, 
      {
        "empty_slots": 21, 
        "extra": {
          "address": null, 
          "last_updated": 1502756366, 
          "renting": 1, 
          "returning": 1, 
          "uid": "20"
        }, 
        "free_bikes": 2, 
        "id": "bf340e99b16d914d449804e4ed568e59", 
        "latitude": 38.923203, 
        "longitude": -77.047637, 
        "name": "Calvert & Biltmore St NW", 
        "timestamp": "2017-08-15T04:49:26.018000Z"
      }, 
      {
        "empty_slots": 10, 
        "extra": {
          "address": null, 
          "last_updated": 1502769704, 
          "renting": 1, 
          "returning": 1, 
          "uid": "21"
        }, 
        "free_bikes": 9, 
        "id": "e07c08d7573eeb500b373a063ef0e8e0", 
        "latitude": 38.9319, 
        "longitude": -77.0388, 
        "name": "Lamont & Mt Pleasant NW", 
        "timestamp": "2017-08-15T04:49:26.019000Z"
      }, 
      {
        "empty_slots": 10, 
        "extra": {
          "address": null, 
          "last_updated": 1502764499, 
          "renting": 1, 
          "returning": 1, 
          "uid": "22"
        }, 
        "free_bikes": 13, 
        "id": "e8a513c9e30ae326488ce5d2371b42ad", 
        "latitude": 38.8767, 
        "longitude": -77.0178, 
        "name": "4th & M St SW", 
        "timestamp": "2017-08-15T04:49:26.020000Z"
      }, 
      {
        "empty_slots": 15, 
        "extra": {
          "address": null, 
          "last_updated": 1502769884, 
          "renting": 1, 
          "returning": 1, 
          "uid": "23"
        }, 
        "free_bikes": 0, 
        "id": "f07634df1939d3394deda53f02272429", 
        "latitude": 38.90985, 
        "longitude": -77.034438, 
        "name": "15th & P St NW", 
        "timestamp": "2017-08-15T04:49:26.021000Z"
      }, 
      {
        "empty_slots": 7, 
        "extra": {
          "address": null, 
          "last_updated": 1502769154, 
          "renting": 1, 
          "returning": 1, 
          "uid": "24"
        }, 
        "free_bikes": 7, 
        "id": "b97a7064fc0f8cc1438793b2b93a88f4", 
        "latitude": 38.912682, 
        "longitude": -77.031681, 
        "name": "14th & R St NW", 
        "timestamp": "2017-08-15T04:49:26.015000Z"
      }, 
      {
        "empty_slots": 0, 
        "extra": {
          "address": null, 
          "last_updated": 1502772093, 
          "renting": 1, 
          "returning": 1, 
          "uid": "25"
        }, 
        "free_bikes": 20, 
        "id": "ed513ae29271c961898b99f592e3503f", 
        "latitude": 38.9086, 
        "longitude": -77.0323, 
        "name": "14th & Rhode Island Ave NW", 
        "timestamp": "2017-08-15T04:49:26.016000Z"
      }, 
      {
        "empty_slots": 10, 
        "extra": {
          "address": null, 
          "last_updated": 1502769188, 
          "renting": 1, 
          "returning": 1, 
          "uid": "26"
        }, 
        "free_bikes": 3, 
        "id": "a97f41a617e2c551d5015558c25acaf3", 
        "latitude": 38.8963, 
        "longitude": -77.045, 
        "name": "20th & E St NW", 
        "timestamp": "2017-08-15T04:49:26.017000Z"
      }, 
      {
        "empty_slots": 33, 
        "extra": {
          "address": null, 
          "last_updated": 1502766419, 
          "renting": 1, 
          "returning": 1, 
          "uid": "27"
        }, 
        "free_bikes": 2, 
        "id": "ff682b381ee530ef33996975532af856", 
        "latitude": 38.9008, 
        "longitude": -77.047, 
        "name": "21st & I St NW", 
        "timestamp": "2017-08-15T04:49:26.018000Z"
      }, 
      {
        "empty_slots": 4, 
        "extra": {
          "address": null, 
          "last_updated": 1502771718, 
          "renting": 1, 
          "returning": 1, 
          "uid": "28"
        }, 
        "free_bikes": 11, 
        "id": "74d798770387fa62d1019164caf744bb", 
        "latitude": 38.936043, 
        "longitude": -77.024649, 
        "name": "Georgia & New Hampshire Ave NW", 
        "timestamp": "2017-08-15T04:49:26.022000Z"
      }, 
      {
        "empty_slots": 0, 
        "extra": {
          "address": null, 
          "last_updated": 1502766766, 
          "renting": 1, 
          "returning": 1, 
          "uid": "29"
        }, 
        "free_bikes": 11, 
        "id": "27336245464e1367b04e5b009ac53652", 
        "latitude": 38.9375, 
        "longitude": -77.0328, 
        "name": "14th St & Spring Rd NW", 
        "timestamp": "2017-08-15T04:49:26.023000Z"
      }, 
      {
        "empty_slots": 5, 
        "extra": {
          "address": null, 
          "last_updated": 1502769430, 
          "renting": 1, 
          "returning": 1, 
          "uid": "30"
        }, 
        "free_bikes": 6, 
        "id": "274105faf377ed6b0bf8435125a11782", 
        "latitude": 38.9346, 
        "longitude": -76.9955, 
        "name": "John McCormack Dr & Michigan Ave NE", 
        "timestamp": "2017-08-15T04:49:25.952000Z"
      }, 
      {
        "empty_slots": 1, 
        "extra": {
          "address": null, 
          "last_updated": 1502771302, 
          "renting": 1, 
          "returning": 1, 
          "uid": "31"
        }, 
        "free_bikes": 12, 
        "id": "bd2f3e2b6d90886fc2f6e1cd8a702c9c", 
        "latitude": 38.90304, 
        "longitude": -77.019027, 
        "name": "5th & K St NW", 
        "timestamp": "2017-08-15T04:49:25.951000Z"
      }, 
      {
        "empty_slots": 11, 
        "extra": {
          "address": null, 
          "last_updated": 1502762414, 
          "renting": 1, 
          "returning": 1, 
          "uid": "32"
        }, 
        "free_bikes": 3, 
        "id": "4928d0ad5be9fd88963c7e29c1612666", 
        "latitude": 38.8896, 
        "longitude": -76.9769, 
        "name": "19th & East Capitol St SE", 
        "timestamp": "2017-08-15T04:49:25.950000Z"
      }, 
      {
        "empty_slots": 5, 
        "extra": {
          "address": null, 
          "last_updated": 1502769119, 
          "renting": 1, 
          "returning": 1, 
          "uid": "33"
        }, 
        "free_bikes": 13, 
        "id": "0076a75098ef174de5673b2537b74fb1", 
        "latitude": 38.9308, 
        "longitude": -77.0315, 
        "name": "Park Rd & Holmead Pl NW", 
        "timestamp": "2017-08-15T04:49:25.949000Z"
      }, 
      {
        "empty_slots": 6, 
        "extra": {
          "address": null, 
          "last_updated": 1502758039, 
          "renting": 1, 
          "returning": 1, 
          "uid": "34"
        }, 
        "free_bikes": 4, 
        "id": "fe096f5bffda01b94f5e0819e975075a", 
        "latitude": 38.8601, 
        "longitude": -76.9672, 
        "name": "Good Hope & Naylor Rd SE", 
        "timestamp": "2017-08-15T04:49:25.955000Z"
      }, 
      {
        "empty_slots": 1, 
        "extra": {
          "address": null, 
          "last_updated": 1502769029, 
          "renting": 1, 
          "returning": 1, 
          "uid": "35"
        }, 
        "free_bikes": 10, 
        "id": "8b0dec2a3b31441b207dc14bd4ec1785", 
        "latitude": 38.934267, 
        "longitude": -77.057979, 
        "name": "Connecticut Ave & Newark St NW / Cleveland Park", 
        "timestamp": "2017-08-15T04:49:25.954000Z"
      }, 
      {
        "empty_slots": 4, 
        "extra": {
          "address": null, 
          "last_updated": 1502701273, 
          "renting": 1, 
          "returning": 1, 
          "uid": "36"
        }, 
        "free_bikes": 7, 
        "id": "6f4082d6d61a18a29e87e6e79e13360d", 
        "latitude": 38.878, 
        "longitude": -76.9607, 
        "name": "Randle Circle & Minnesota Ave SE", 
        "timestamp": "2017-08-15T04:49:25.954000Z"
      }, 
      {
        "empty_slots": 8, 
        "extra": {
          "address": null, 
          "last_updated": 1502769637, 
          "renting": 1, 
          "returning": 1, 
          "uid": "37"
        }, 
        "free_bikes": 7, 
        "id": "b29b55c1d304165f62eaaf8f03242ede", 
        "latitude": 38.897063, 
        "longitude": -76.947446, 
        "name": "Minnesota Ave Metro/DOES", 
        "timestamp": "2017-08-15T04:49:25.953000Z"
      }, 
      {
        "empty_slots": 5, 
        "extra": {
          "address": null, 
          "last_updated": 1502701310, 
          "renting": 1, 
          "returning": 1, 
          "uid": "38"
        }, 
        "free_bikes": 6, 
        "id": "d7d271596bbaa09ddf04435c743148e3", 
        "latitude": 38.901385, 
        "longitude": -76.941877, 
        "name": "Nannie Helen Burroughs & Minnesota Ave NE", 
        "timestamp": "2017-08-15T04:49:25.948000Z"
      }, 
      {
        "empty_slots": 7, 
        "extra": {
          "address": null, 
          "last_updated": 1502761106, 
          "renting": 1, 
          "returning": 1, 
          "uid": "39"
        }, 
        "free_bikes": 4, 
        "id": "e055d608f07aa71e39b2a26e6ed5f397", 
        "latitude": 38.862669, 
        "longitude": -76.994637, 
        "name": "Anacostia Metro", 
        "timestamp": "2017-08-15T04:49:25.947000Z"
      }, 
      {
        "empty_slots": 7, 
        "extra": {
          "address": null, 
          "last_updated": 1502760793, 
          "renting": 1, 
          "returning": 1, 
          "uid": "40"
        }, 
        "free_bikes": 3, 
        "id": "0276f5feb80e14b7f9e6663f1d5c3227", 
        "latitude": 38.867373, 
        "longitude": -76.988039, 
        "name": "Good Hope Rd & MLK Ave SE", 
        "timestamp": "2017-08-15T04:49:26.334000Z"
      }, 
      {
        "empty_slots": 10, 
        "extra": {
          "address": null, 
          "last_updated": 1502751102, 
          "renting": 1, 
          "returning": 1, 
          "uid": "41"
        }, 
        "free_bikes": 0, 
        "id": "6d44e60fdded96e97d08396320354379", 
        "latitude": 38.8952, 
        "longitude": -77.0436, 
        "name": "19th & E Street NW", 
        "timestamp": "2017-08-15T04:49:26.335000Z"
      }, 
      {
        "empty_slots": 9, 
        "extra": {
          "address": null, 
          "last_updated": 1502763155, 
          "renting": 1, 
          "returning": 1, 
          "uid": "42"
        }, 
        "free_bikes": 4, 
        "id": "640d652e6b6f649e65772f68313e1c8c", 
        "latitude": 38.919077, 
        "longitude": -77.000648, 
        "name": "4th & W St NE", 
        "timestamp": "2017-08-15T04:49:26.332000Z"
      }, 
      {
        "empty_slots": 6, 
        "extra": {
          "address": null, 
          "last_updated": 1502767852, 
          "renting": 1, 
          "returning": 1, 
          "uid": "43"
        }, 
        "free_bikes": 9, 
        "id": "a0837611428c4e1104a5ab1cec4d31d7", 
        "latitude": 38.9172, 
        "longitude": -77.0259, 
        "name": "10th & U St NW", 
        "timestamp": "2017-08-15T04:49:26.333000Z"
      }, 
      {
        "empty_slots": 3, 
        "extra": {
          "address": null, 
          "last_updated": 1502768535, 
          "renting": 1, 
          "returning": 1, 
          "uid": "44"
        }, 
        "free_bikes": 8, 
        "id": "b277502cc31b806eb0ff8403c765ed64", 
        "latitude": 38.9249, 
        "longitude": -77.0222, 
        "name": "Georgia Ave and Fairmont St NW", 
        "timestamp": "2017-08-15T04:49:26.329000Z"
      }, 
      {
        "empty_slots": 26, 
        "extra": {
          "address": null, 
          "last_updated": 1502761696, 
          "renting": 1, 
          "returning": 1, 
          "uid": "45"
        }, 
        "free_bikes": 12, 
        "id": "c84d2a01180ccf799b5364cbcfb2a3c7", 
        "latitude": 38.8743, 
        "longitude": -77.0057, 
        "name": "1st & N St  SE", 
        "timestamp": "2017-08-15T04:49:26.330000Z"
      }, 
      {
        "empty_slots": 7, 
        "extra": {
          "address": null, 
          "last_updated": 1502767387, 
          "renting": 1, 
          "returning": 1, 
          "uid": "46"
        }, 
        "free_bikes": 7, 
        "id": "9e3f35c418b890f1675e819671b39e79", 
        "latitude": 38.9154, 
        "longitude": -77.0446, 
        "name": "20th St & Florida Ave NW", 
        "timestamp": "2017-08-15T04:49:26.326000Z"
      }, 
      {
        "empty_slots": 2, 
        "extra": {
          "address": null, 
          "last_updated": 1502768359, 
          "renting": 1, 
          "returning": 1, 
          "uid": "47"
        }, 
        "free_bikes": 12, 
        "id": "a90eda78f96f89927f73d915aefdfaf2", 
        "latitude": 38.9155, 
        "longitude": -77.0222, 
        "name": "7th & T St NW", 
        "timestamp": "2017-08-15T04:49:26.328000Z"
      }, 
      {
        "empty_slots": 11, 
        "extra": {
          "address": null, 
          "last_updated": 1502767772, 
          "renting": 1, 
          "returning": 1, 
          "uid": "49"
        }, 
        "free_bikes": 4, 
        "id": "bcda06b77a1d444ef6c5cb5fdc0205ac", 
        "latitude": 38.8763, 
        "longitude": -77.0037, 
        "name": "M St & New Jersey Ave SE", 
        "timestamp": "2017-08-15T04:49:26.325000Z"
      }, 
      {
        "empty_slots": 45, 
        "extra": {
          "address": null, 
          "last_updated": 1502769780, 
          "renting": 1, 
          "returning": 1, 
          "uid": "51"
        }, 
        "free_bikes": 0, 
        "id": "7804bc3da1f64181cabac3495f81cf15", 
        "latitude": 38.9101, 
        "longitude": -77.0444, 
        "name": "Massachusetts Ave & Dupont Circle NW", 
        "timestamp": "2017-08-15T04:49:26.263000Z"
      }, 
      {
        "empty_slots": 0, 
        "extra": {
          "address": null, 
          "last_updated": 1502764139, 
          "renting": 1, 
          "returning": 1, 
          "uid": "52"
        }, 
        "free_bikes": 13, 
        "id": "b31efab45904992cc79c5106710dd32b", 
        "latitude": 38.9057, 
        "longitude": -77.0056, 
        "name": "1st & M St NE", 
        "timestamp": "2017-08-15T04:49:26.266000Z"
      }, 
      {
        "empty_slots": 17, 
        "extra": {
          "address": null, 
          "last_updated": 1502765437, 
          "renting": 1, 
          "returning": 1, 
          "uid": "53"
        }, 
        "free_bikes": 1, 
        "id": "ccffa5f9c15df14731310fe6cb89c54a", 
        "latitude": 38.90534, 
        "longitude": -77.046774, 
        "name": "21st & M St NW", 
        "timestamp": "2017-08-15T04:49:26.265000Z"
      }, 
      {
        "empty_slots": 20, 
        "extra": {
          "address": null, 
          "last_updated": 1502769699, 
          "renting": 1, 
          "returning": 1, 
          "uid": "54"
        }, 
        "free_bikes": 3, 
        "id": "f98546668c10ba4ff438babd9e4b636a", 
        "latitude": 38.90276, 
        "longitude": -77.03863, 
        "name": "17th & K St NW", 
        "timestamp": "2017-08-15T04:49:26.261000Z"
      }, 
      {
        "empty_slots": 11, 
        "extra": {
          "address": null, 
          "last_updated": 1502765415, 
          "renting": 1, 
          "returning": 1, 
          "uid": "55"
        }, 
        "free_bikes": 3, 
        "id": "4bdab24be023f9229a6722011584e306", 
        "latitude": 38.899408, 
        "longitude": -77.015289, 
        "name": "3rd & H St NW", 
        "timestamp": "2017-08-15T04:49:26.260000Z"
      }, 
      {
        "empty_slots": 7, 
        "extra": {
          "address": null, 
          "last_updated": 1502770362, 
          "renting": 1, 
          "returning": 1, 
          "uid": "56"
        }, 
        "free_bikes": 4, 
        "id": "cbf9e1f7d85aa0645787ed7f70a3577f", 
        "latitude": 38.8851, 
        "longitude": -77.0023, 
        "name": "3rd & D St SE", 
        "timestamp": "2017-08-15T04:49:26.263000Z"
      }, 
      {
        "empty_slots": 7, 
        "extra": {
          "address": null, 
          "last_updated": 1502769485, 
          "renting": 1, 
          "returning": 1, 
          "uid": "57"
        }, 
        "free_bikes": 8, 
        "id": "78496045f997261bf1c4a13f7b0358f1", 
        "latitude": 38.8803, 
        "longitude": -76.9862, 
        "name": "Potomac & Pennsylvania Ave SE", 
        "timestamp": "2017-08-15T04:49:26.262000Z"
      }, 
      {
        "empty_slots": 3, 
        "extra": {
          "address": null, 
          "last_updated": 1502766057, 
          "renting": 1, 
          "returning": 1, 
          "uid": "58"
        }, 
        "free_bikes": 12, 
        "id": "e7da615afa84ff8614c67ce465e785d5", 
        "latitude": 38.884, 
        "longitude": -76.9861, 
        "name": "14th & D St SE", 
        "timestamp": "2017-08-15T04:49:26.259000Z"
      }, 
      {
        "empty_slots": 7, 
        "extra": {
          "address": null, 
          "last_updated": 1502772220, 
          "renting": 1, 
          "returning": 1, 
          "uid": "59"
        }, 
        "free_bikes": 12, 
        "id": "b5b8195742f9700a5c7c71343e4799c7", 
        "latitude": 38.9121, 
        "longitude": -77.0387, 
        "name": "17th & Corcoran St NW", 
        "timestamp": "2017-08-15T04:49:26.258000Z"
      }, 
      {
        "empty_slots": 12, 
        "extra": {
          "address": null, 
          "last_updated": 1502757281, 
          "renting": 1, 
          "returning": 1, 
          "uid": "60"
        }, 
        "free_bikes": 2, 
        "id": "939c03a6c59c9b65f8b01fb856b30ceb", 
        "latitude": 38.944551, 
        "longitude": -77.063896, 
        "name": "Van Ness Metro / UDC", 
        "timestamp": "2017-08-15T04:49:26.184000Z"
      }, 
      {
        "empty_slots": 0, 
        "extra": {
          "address": null, 
          "last_updated": 1502768447, 
          "renting": 1, 
          "returning": 1, 
          "uid": "61"
        }, 
        "free_bikes": 15, 
        "id": "b17187e483575b7bcea1eee73be1d437", 
        "latitude": 38.9126, 
        "longitude": -77.0135, 
        "name": "Florida Ave & R St NW", 
        "timestamp": "2017-08-15T04:49:26.185000Z"
      }, 
      {
        "empty_slots": 2, 
        "extra": {
          "address": null, 
          "last_updated": 1502766098, 
          "renting": 1, 
          "returning": 1, 
          "uid": "62"
        }, 
        "free_bikes": 6, 
        "id": "ac70556468597173f81d26f60e6baa1c", 
        "latitude": 38.8792, 
        "longitude": -76.9953, 
        "name": "8th & Eye St SE / Barracks Row", 
        "timestamp": "2017-08-15T04:49:26.264000Z"
      }, 
      {
        "empty_slots": 9, 
        "extra": {
          "address": null, 
          "last_updated": 1502766500, 
          "renting": 1, 
          "returning": 1, 
          "uid": "63"
        }, 
        "free_bikes": 6, 
        "id": "5c6aefb6d68e8f4322cb6e2bb8eb997d", 
        "latitude": 38.938736, 
        "longitude": -77.087171, 
        "name": "Ward Circle / American University", 
        "timestamp": "2017-08-15T04:49:26.267000Z"
      }, 
      {
        "empty_slots": 14, 
        "extra": {
          "address": null, 
          "last_updated": 1502766223, 
          "renting": 1, 
          "returning": 1, 
          "uid": "64"
        }, 
        "free_bikes": 5, 
        "id": "af0cdb2eea6d3dd2c42536079ed5ba7a", 
        "latitude": 38.934881, 
        "longitude": -77.072755, 
        "name": "Wisconsin Ave & Newark St NW", 
        "timestamp": "2017-08-15T04:49:26.188000Z"
      }, 
      {
        "empty_slots": 6, 
        "extra": {
          "address": null, 
          "last_updated": 1502758887, 
          "renting": 1, 
          "returning": 1, 
          "uid": "65"
        }, 
        "free_bikes": 5, 
        "id": "c124242bdf3501d1f68f9c451505480f", 
        "latitude": 38.947774, 
        "longitude": -77.032818, 
        "name": "14th St Heights / 14th & Crittenden St NW", 
        "timestamp": "2017-08-15T04:49:26.189000Z"
      }, 
      {
        "empty_slots": 6, 
        "extra": {
          "address": null, 
          "last_updated": 1502751151, 
          "renting": 1, 
          "returning": 1, 
          "uid": "66"
        }, 
        "free_bikes": 5, 
        "id": "d8e819aa52ab16d76c638088f1f44c56", 
        "latitude": 38.865784, 
        "longitude": -76.9784, 
        "name": "Anacostia Library", 
        "timestamp": "2017-08-15T04:49:26.190000Z"
      }, 
      {
        "empty_slots": 6, 
        "extra": {
          "address": null, 
          "last_updated": 1502748747, 
          "renting": 1, 
          "returning": 1, 
          "uid": "67"
        }, 
        "free_bikes": 5, 
        "id": "737a15976b025dafdc243a0a5d6577f5", 
        "latitude": 38.873057, 
        "longitude": -76.971015, 
        "name": "Pennsylvania & Minnesota Ave SE", 
        "timestamp": "2017-08-15T04:49:26.190000Z"
      }, 
      {
        "empty_slots": 4, 
        "extra": {
          "address": null, 
          "last_updated": 1502770439, 
          "renting": 1, 
          "returning": 1, 
          "uid": "68"
        }, 
        "free_bikes": 11, 
        "id": "04d36ea0b0ded6ab59fdc6fdc5e67c86", 
        "latitude": 38.886952, 
        "longitude": -76.996806, 
        "name": "Eastern Market / 7th & North Carolina Ave SE", 
        "timestamp": "2017-08-15T04:49:26.141000Z"
      }, 
      {
        "empty_slots": 21, 
        "extra": {
          "address": null, 
          "last_updated": 1502766423, 
          "renting": 1, 
          "returning": 1, 
          "uid": "69"
        }, 
        "free_bikes": 2, 
        "id": "cddfef5100fe74ef692df61569830a87", 
        "latitude": 38.899632, 
        "longitude": -77.031686, 
        "name": "14th St & New York Ave NW", 
        "timestamp": "2017-08-15T04:49:26.192000Z"
      }, 
      {
        "empty_slots": 5, 
        "extra": {
          "address": null, 
          "last_updated": 1502742636, 
          "renting": 1, 
          "returning": 1, 
          "uid": "70"
        }, 
        "free_bikes": 6, 
        "id": "65809353352a0d6e25350de8c7c6029f", 
        "latitude": 38.894, 
        "longitude": -76.947974, 
        "name": "Benning Branch Library", 
        "timestamp": "2017-08-15T04:49:26.123000Z"
      }, 
      {
        "empty_slots": 35, 
        "extra": {
          "address": null, 
          "last_updated": 1502765760, 
          "renting": 1, 
          "returning": 1, 
          "uid": "71"
        }, 
        "free_bikes": 3, 
        "id": "916ade50e6c0da05a52bf036f3e426d5", 
        "latitude": 38.887237, 
        "longitude": -77.028226, 
        "name": "USDA / 12th & Independence Ave SW", 
        "timestamp": "2017-08-15T04:49:26.122000Z"
      }, 
      {
        "empty_slots": 11, 
        "extra": {
          "address": null, 
          "last_updated": 1502766013, 
          "renting": 1, 
          "returning": 1, 
          "uid": "72"
        }, 
        "free_bikes": 8, 
        "id": "c79b3b235afab65e79934c338abd59f7", 
        "latitude": 38.9022212, 
        "longitude": -77.059219, 
        "name": "Georgetown Harbor / 30th St NW", 
        "timestamp": "2017-08-15T04:49:26.121000Z"
      }, 
      {
        "empty_slots": 3, 
        "extra": {
          "address": null, 
          "last_updated": 1502754931, 
          "renting": 1, 
          "returning": 1, 
          "uid": "73"
        }, 
        "free_bikes": 8, 
        "id": "ad0cbca89caaa6bdd5ead881de5d081d", 
        "latitude": 38.933668, 
        "longitude": -76.991016, 
        "name": "12th & Newton St NE", 
        "timestamp": "2017-08-15T04:49:26.120000Z"
      }, 
      {
        "empty_slots": 7, 
        "extra": {
          "address": null, 
          "last_updated": 1502763276, 
          "renting": 1, 
          "returning": 1, 
          "uid": "74"
        }, 
        "free_bikes": 7, 
        "id": "91e89e45df2d02a8fe9a7151f0d621f8", 
        "latitude": 38.894919, 
        "longitude": -77.046587, 
        "name": "US Dept of State / Virginia Ave & 21st St NW", 
        "timestamp": "2017-08-15T04:49:26.119000Z"
      }, 
      {
        "empty_slots": 11, 
        "extra": {
          "address": null, 
          "last_updated": 1502765325, 
          "renting": 1, 
          "returning": 1, 
          "uid": "75"
        }, 
        "free_bikes": 3, 
        "id": "608c7af0a95cb90d4f5415e24a7f7689", 
        "latitude": 38.886266, 
        "longitude": -77.022241, 
        "name": "L'Enfant Plaza / 7th & C St SW", 
        "timestamp": "2017-08-15T04:49:26.118000Z"
      }, 
      {
        "empty_slots": 28, 
        "extra": {
          "address": null, 
          "last_updated": 1502767932, 
          "renting": 1, 
          "returning": 1, 
          "uid": "76"
        }, 
        "free_bikes": 1, 
        "id": "6e37eab19301e2a4f8723d01debd2fc9", 
        "latitude": 38.893028, 
        "longitude": -77.026013, 
        "name": "10th St & Constitution Ave NW", 
        "timestamp": "2017-08-15T04:49:26.117000Z"
      }, 
      {
        "empty_slots": 9, 
        "extra": {
          "address": null, 
          "last_updated": 1502760326, 
          "renting": 1, 
          "returning": 1, 
          "uid": "78"
        }, 
        "free_bikes": 10, 
        "id": "804a2d0024afdca4a323864167c8f379", 
        "latitude": 38.884, 
        "longitude": -76.995397, 
        "name": "Eastern Market Metro / Pennsylvania Ave & 7th St SE", 
        "timestamp": "2017-08-15T04:49:26.125000Z"
      }, 
      {
        "empty_slots": 13, 
        "extra": {
          "address": null, 
          "last_updated": 1502766669, 
          "renting": 1, 
          "returning": 1, 
          "uid": "80"
        }, 
        "free_bikes": 2, 
        "id": "03d536364d680895c1088a96dcdac8a0", 
        "latitude": 38.947607, 
        "longitude": -77.079382, 
        "name": "Tenleytown / Wisconsin Ave & Albemarle St NW", 
        "timestamp": "2017-08-15T04:49:26.050000Z"
      }, 
      {
        "empty_slots": 6, 
        "extra": {
          "address": null, 
          "last_updated": 1502771664, 
          "renting": 1, 
          "returning": 1, 
          "uid": "81"
        }, 
        "free_bikes": 21, 
        "id": "7153bd78615e9f5258d7e2c00762ba85", 
        "latitude": 38.9003, 
        "longitude": -76.9882, 
        "name": "13th & H St NE", 
        "timestamp": "2017-08-15T04:49:26.051000Z"
      }, 
      {
        "empty_slots": 22, 
        "extra": {
          "address": null, 
          "last_updated": 1502769292, 
          "renting": 1, 
          "returning": 1, 
          "uid": "82"
        }, 
        "free_bikes": 9, 
        "id": "861b44f3d0763fa311a75d8acfa568e4", 
        "latitude": 38.897222, 
        "longitude": -77.019347, 
        "name": "5th & F St NW", 
        "timestamp": "2017-08-15T04:49:26.048000Z"
      }, 
      {
        "empty_slots": 11, 
        "extra": {
          "address": null, 
          "last_updated": 1502772500, 
          "renting": 1, 
          "returning": 1, 
          "uid": "83"
        }, 
        "free_bikes": 8, 
        "id": "693ef96e94c7b1a4835a4446d5aea096", 
        "latitude": 38.8991, 
        "longitude": -77.0337, 
        "name": "New York Ave & 15th St NW", 
        "timestamp": "2017-08-15T04:49:26.049000Z"
      }, 
      {
        "empty_slots": 9, 
        "extra": {
          "address": null, 
          "last_updated": 1502756763, 
          "renting": 1, 
          "returning": 1, 
          "uid": "85"
        }, 
        "free_bikes": 5, 
        "id": "47e3f8beb56dffb09f3e98bce93a39e0", 
        "latitude": 38.927872, 
        "longitude": -77.043358, 
        "name": "Harvard St & Adams Mill Rd NW", 
        "timestamp": "2017-08-15T04:49:26.054000Z"
      }, 
      {
        "empty_slots": 15, 
        "extra": {
          "address": null, 
          "last_updated": 1502762774, 
          "renting": 1, 
          "returning": 1, 
          "uid": "86"
        }, 
        "free_bikes": 0, 
        "id": "f77927c05fbb970764aaff3172974090", 
        "latitude": 38.903407, 
        "longitude": -77.043648, 
        "name": "19th & L St NW", 
        "timestamp": "2017-08-15T04:49:26.052000Z"
      }, 
      {
        "empty_slots": 21, 
        "extra": {
          "address": null, 
          "last_updated": 1502770277, 
          "renting": 1, 
          "returning": 1, 
          "uid": "87"
        }, 
        "free_bikes": 0, 
        "id": "ebf583bec271ccf5bc6422e2b4ee6702", 
        "latitude": 38.90375, 
        "longitude": -77.06269, 
        "name": "C & O Canal & Wisconsin Ave NW", 
        "timestamp": "2017-08-15T04:49:26.053000Z"
      }, 
      {
        "empty_slots": 1, 
        "extra": {
          "address": null, 
          "last_updated": 1502760646, 
          "renting": 1, 
          "returning": 1, 
          "uid": "88"
        }, 
        "free_bikes": 18, 
        "id": "e2e7a2a4e55627569e792e7ef732bca5", 
        "latitude": 38.87675, 
        "longitude": -77.02127, 
        "name": "6th & Water St SW / SW Waterfront", 
        "timestamp": "2017-08-15T04:49:26.043000Z"
      }, 
      {
        "empty_slots": 2, 
        "extra": {
          "address": null, 
          "last_updated": 1502770183, 
          "renting": 1, 
          "returning": 1, 
          "uid": "89"
        }, 
        "free_bikes": 21, 
        "id": "3880a635e3521ad393534aad185e648c", 
        "latitude": 38.894758, 
        "longitude": -76.997114, 
        "name": "D St & Maryland Ave NE", 
        "timestamp": "2017-08-15T04:49:26.044000Z"
      }, 
      {
        "empty_slots": 6, 
        "extra": {
          "address": null, 
          "last_updated": 1502765240, 
          "renting": 1, 
          "returning": 1, 
          "uid": "90"
        }, 
        "free_bikes": 5, 
        "id": "ba8fbb00aedfbc39654f3b43f8d4ade3", 
        "latitude": 38.916442, 
        "longitude": -77.0682, 
        "name": "34th St & Wisconsin Ave NW", 
        "timestamp": "2017-08-15T04:49:25.978000Z"
      }, 
      {
        "empty_slots": 21, 
        "extra": {
          "address": null, 
          "last_updated": 1502762712, 
          "renting": 1, 
          "returning": 1, 
          "uid": "91"
        }, 
        "free_bikes": 1, 
        "id": "1ea0a24b0c3c6493d9722fbe7b9abdd2", 
        "latitude": 38.900283, 
        "longitude": -77.029822, 
        "name": "13th St & New York Ave NW", 
        "timestamp": "2017-08-15T04:49:25.977000Z"
      }, 
      {
        "empty_slots": 24, 
        "extra": {
          "address": null, 
          "last_updated": 1502768989, 
          "renting": 1, 
          "returning": 1, 
          "uid": "92"
        }, 
        "free_bikes": 7, 
        "id": "eae8a7a058a6f0b61133e73ba5b15016", 
        "latitude": 38.8997, 
        "longitude": -77.023086, 
        "name": "8th & H St NW", 
        "timestamp": "2017-08-15T04:49:25.980000Z"
      }, 
      {
        "empty_slots": 6, 
        "extra": {
          "address": null, 
          "last_updated": 1502770754, 
          "renting": 1, 
          "returning": 1, 
          "uid": "93"
        }, 
        "free_bikes": 5, 
        "id": "b7e038b77bd139c744e33da271b673eb", 
        "latitude": 38.932514, 
        "longitude": -76.992889, 
        "name": "10th & Monroe St NE", 
        "timestamp": "2017-08-15T04:49:25.979000Z"
      }, 
      {
        "empty_slots": 0, 
        "extra": {
          "address": null, 
          "last_updated": 1502766681, 
          "renting": 1, 
          "returning": 1, 
          "uid": "94"
        }, 
        "free_bikes": 22, 
        "id": "65bd205b23951758cbd9a16642099292", 
        "latitude": 38.910972, 
        "longitude": -77.00495, 
        "name": "Eckington Pl & Q St NE", 
        "timestamp": "2017-08-15T04:49:25.981000Z"
      }, 
      {
        "empty_slots": 6, 
        "extra": {
          "address": null, 
          "last_updated": 1502769447, 
          "renting": 1, 
          "returning": 1, 
          "uid": "95"
        }, 
        "free_bikes": 16, 
        "id": "f217617c135911b5953089bc15cc1091", 
        "latitude": 38.899972, 
        "longitude": -76.998347, 
        "name": "6th & H St NE", 
        "timestamp": "2017-08-15T04:49:25.980000Z"
      }, 
      {
        "empty_slots": 0, 
        "extra": {
          "address": null, 
          "last_updated": 1502767990, 
          "renting": 1, 
          "returning": 1, 
          "uid": "96"
        }, 
        "free_bikes": 18, 
        "id": "0fe2d847f7aca803e512cc2c5e85aed8", 
        "latitude": 38.900412, 
        "longitude": -77.001949, 
        "name": "3rd & H St NE", 
        "timestamp": "2017-08-15T04:49:25.983000Z"
      }, 
      {
        "empty_slots": 2, 
        "extra": {
          "address": null, 
          "last_updated": 1502761867, 
          "renting": 1, 
          "returning": 1, 
          "uid": "97"
        }, 
        "free_bikes": 12, 
        "id": "ad94576d1b305e259e062e86fee24b5e", 
        "latitude": 38.900413, 
        "longitude": -76.982872, 
        "name": "Bladensburg Rd & Benning Rd NE", 
        "timestamp": "2017-08-15T04:49:25.982000Z"
      }, 
      {
        "empty_slots": 2, 
        "extra": {
          "address": null, 
          "last_updated": 1502770977, 
          "renting": 1, 
          "returning": 1, 
          "uid": "98"
        }, 
        "free_bikes": 9, 
        "id": "21f29fd82d046687447bf3e14552ab59", 
        "latitude": 38.889955, 
        "longitude": -77.000349, 
        "name": "4th & East Capitol St NE", 
        "timestamp": "2017-08-15T04:49:25.976000Z"
      }, 
      {
        "empty_slots": 19, 
        "extra": {
          "address": null, 
          "last_updated": 1502766839, 
          "renting": 1, 
          "returning": 1, 
          "uid": "159"
        }, 
        "free_bikes": 4, 
        "id": "69f4a167133a6d329d990a0a7da7d5a5", 
        "latitude": 38.9024, 
        "longitude": -77.02622, 
        "name": "10th & K St NW", 
        "timestamp": "2017-08-15T04:49:26.318000Z"
      }, 
      {
        "empty_slots": 10, 
        "extra": {
          "address": null, 
          "last_updated": 1502713605, 
          "renting": 1, 
          "returning": 1, 
          "uid": "378"
        }, 
        "free_bikes": 5, 
        "id": "9b062db8e9205c5716c7bb8e866c0f23", 
        "latitude": 39.105295, 
        "longitude": -77.194774, 
        "name": "Key West Ave & Siesta Key Way", 
        "timestamp": "2017-08-15T04:49:26.034000Z"
      }, 
      {
        "empty_slots": 8, 
        "extra": {
          "address": null, 
          "last_updated": 1502764516, 
          "renting": 1, 
          "returning": 1, 
          "uid": "1"
        }, 
        "free_bikes": 7, 
        "id": "e550f642c284347ead57c528497a2467", 
        "latitude": 38.858971, 
        "longitude": -77.05323, 
        "name": "Eads St & 15th St S", 
        "timestamp": "2017-08-15T04:49:25.994000Z"
      }, 
      {
        "empty_slots": 13, 
        "extra": {
          "address": null, 
          "last_updated": 1502701274, 
          "renting": 1, 
          "returning": 1, 
          "uid": "444"
        }, 
        "free_bikes": 6, 
        "id": "53bad82a52a870f6af91a4e03a8f8729", 
        "latitude": 38.891805, 
        "longitude": -76.913563, 
        "name": "61st St & Banks Pl NE", 
        "timestamp": "2017-08-15T04:49:25.937000Z"
      }, 
      {
        "empty_slots": 4, 
        "extra": {
          "address": null, 
          "last_updated": 1502748335, 
          "renting": 1, 
          "returning": 1, 
          "uid": "429"
        }, 
        "free_bikes": 7, 
        "id": "e1a6aca3b6d4644f226ec27f4b987cbe", 
        "latitude": 38.924437, 
        "longitude": -77.217664, 
        "name": "Westpark & Jones Branch Dr", 
        "timestamp": "2017-08-15T04:49:26.276000Z"
      }, 
      {
        "empty_slots": 7, 
        "extra": {
          "address": null, 
          "last_updated": 1502748519, 
          "renting": 1, 
          "returning": 1, 
          "uid": "428"
        }, 
        "free_bikes": 4, 
        "id": "628d550fb8ed874d53a7771d1574a86c", 
        "latitude": 38.920939, 
        "longitude": -77.222115, 
        "name": "Tysons Corner Station", 
        "timestamp": "2017-08-15T04:49:26.277000Z"
      }, 
      {
        "empty_slots": 27, 
        "extra": {
          "address": null, 
          "last_updated": 1502769603, 
          "renting": 1, 
          "returning": 1, 
          "uid": "105"
        }, 
        "free_bikes": 0, 
        "id": "fc5fcf7e47536da893edfa7ba1167d78", 
        "latitude": 38.89729557348138, 
        "longitude": -77.02218532562256, 
        "name": "7th & F St NW/Portrait Gallery", 
        "timestamp": "2017-08-15T04:49:25.946000Z"
      }, 
      {
        "empty_slots": 1, 
        "extra": {
          "address": null, 
          "last_updated": 1502701380, 
          "renting": 1, 
          "returning": 1, 
          "uid": "467"
        }, 
        "free_bikes": 9, 
        "id": "9b035e471a3fdeef5543a140f64fccec", 
        "latitude": 38.970412, 
        "longitude": -77.340787, 
        "name": "North Shore Dr & Village Rd", 
        "timestamp": "2017-08-15T04:49:26.202000Z"
      }, 
      {
        "empty_slots": 7, 
        "extra": {
          "address": null, 
          "last_updated": 1502755830, 
          "renting": 1, 
          "returning": 1, 
          "uid": "463"
        }, 
        "free_bikes": 8, 
        "id": "d32fd4611127cc9ae57e779cc3ada95b", 
        "latitude": 39.044887, 
        "longitude": -77.047788, 
        "name": "Amherst Ave & Elkins St", 
        "timestamp": "2017-08-15T04:49:26.205000Z"
      }, 
      {
        "empty_slots": 0, 
        "extra": {
          "address": null, 
          "last_updated": 1502751164, 
          "renting": 1, 
          "returning": 1, 
          "uid": "447"
        }, 
        "free_bikes": 11, 
        "id": "0fb4f329682bf8bb3b6ebdf3e51d29cc", 
        "latitude": 38.951443, 
        "longitude": -77.340377, 
        "name": "Sunset Hills Rd & Isaac Newton Square", 
        "timestamp": "2017-08-15T04:49:25.935000Z"
      }, 
      {
        "empty_slots": 6, 
        "extra": {
          "address": null, 
          "last_updated": 1502750189, 
          "renting": 1, 
          "returning": 1, 
          "uid": "100"
        }, 
        "free_bikes": 5, 
        "id": "77c3e8befb58b6301a54b9fbc29e2f07", 
        "latitude": 38.8692, 
        "longitude": -76.9599, 
        "name": "Branch & Pennsylvania Ave SE", 
        "timestamp": "2017-08-15T04:49:25.942000Z"
      }, 
      {
        "empty_slots": 0, 
        "extra": {
          "address": null, 
          "last_updated": 1502766518, 
          "renting": 1, 
          "returning": 1, 
          "uid": "101"
        }, 
        "free_bikes": 30, 
        "id": "af76d115cb01553e9b728477c24e936a", 
        "latitude": 38.894832, 
        "longitude": -76.987633, 
        "name": "13th & D St NE", 
        "timestamp": "2017-08-15T04:49:25.942000Z"
      }, 
      {
        "empty_slots": 5, 
        "extra": {
          "address": null, 
          "last_updated": 1502770318, 
          "renting": 1, 
          "returning": 1, 
          "uid": "102"
        }, 
        "free_bikes": 17, 
        "id": "60846cd3f5559babdfcf19a9b3a2b86c", 
        "latitude": 38.91554, 
        "longitude": -77.03818, 
        "name": "New Hampshire Ave & T St NW", 
        "timestamp": "2017-08-15T04:49:25.940000Z"
      }, 
      {
        "empty_slots": 30, 
        "extra": {
          "address": null, 
          "last_updated": 1502767719, 
          "renting": 1, 
          "returning": 1, 
          "uid": "103"
        }, 
        "free_bikes": 0, 
        "id": "1dc9ea879ae9f984d8a3ed61ee61acdd", 
        "latitude": 38.898364, 
        "longitude": -77.027869, 
        "name": "Metro Center / 12th & G St NW", 
        "timestamp": "2017-08-15T04:49:25.941000Z"
      }, 
      {
        "empty_slots": 24, 
        "extra": {
          "address": null, 
          "last_updated": 1502762386, 
          "renting": 1, 
          "returning": 1, 
          "uid": "104"
        }, 
        "free_bikes": 1, 
        "id": "497a312729b49320919ff090eb2b339f", 
        "latitude": 38.894514, 
        "longitude": -77.031617, 
        "name": "14th & D St NW / Ronald Reagan Building", 
        "timestamp": "2017-08-15T04:49:25.945000Z"
      }, 
      {
        "empty_slots": 32, 
        "extra": {
          "address": null, 
          "last_updated": 1502771773, 
          "renting": 1, 
          "returning": 1, 
          "uid": "106"
        }, 
        "free_bikes": 3, 
        "id": "15084f7a937b270663b232cdc0fab47d", 
        "latitude": 38.902061, 
        "longitude": -77.038322, 
        "name": "17th & K St NW / Farragut Square", 
        "timestamp": "2017-08-15T04:49:25.943000Z"
      }, 
      {
        "empty_slots": 18, 
        "extra": {
          "address": null, 
          "last_updated": 1502771292, 
          "renting": 1, 
          "returning": 1, 
          "uid": "107"
        }, 
        "free_bikes": 1, 
        "id": "6f78225b15faf01e5e90676726b53628", 
        "latitude": 38.908905, 
        "longitude": -77.04478, 
        "name": "20th & O St NW / Dupont South", 
        "timestamp": "2017-08-15T04:49:25.944000Z"
      }, 
      {
        "empty_slots": 11, 
        "extra": {
          "address": null, 
          "last_updated": 1502758035, 
          "renting": 1, 
          "returning": 1, 
          "uid": "108"
        }, 
        "free_bikes": 4, 
        "id": "13c0596cea36a133baf073df9e4aa586", 
        "latitude": 38.895344, 
        "longitude": -77.016106, 
        "name": "4th & D St NW / Judiciary Square", 
        "timestamp": "2017-08-15T04:49:25.938000Z"
      }, 
      {
        "empty_slots": 26, 
        "extra": {
          "address": null, 
          "last_updated": 1502766655, 
          "renting": 1, 
          "returning": 1, 
          "uid": "109"
        }, 
        "free_bikes": 9, 
        "id": "53ae28db4335f0e826104ca46e849d8c", 
        "latitude": 38.8923, 
        "longitude": -77.0436, 
        "name": "19th St & Constitution Ave NW", 
        "timestamp": "2017-08-15T04:49:25.939000Z"
      }, 
      {
        "empty_slots": 17, 
        "extra": {
          "address": null, 
          "last_updated": 1502768955, 
          "renting": 1, 
          "returning": 1, 
          "uid": "110"
        }, 
        "free_bikes": 6, 
        "id": "6c2661446a9fd10cdd685e5f78d6bfb7", 
        "latitude": 38.90774, 
        "longitude": -77.071652, 
        "name": "37th & O St NW / Georgetown University", 
        "timestamp": "2017-08-15T04:49:26.272000Z"
      }, 
      {
        "empty_slots": 2, 
        "extra": {
          "address": null, 
          "last_updated": 1502763103, 
          "renting": 1, 
          "returning": 1, 
          "uid": "111"
        }, 
        "free_bikes": 17, 
        "id": "7699cbfef6f06a41b74a7ab6c770a354", 
        "latitude": 38.899983, 
        "longitude": -76.991383, 
        "name": "11th & H St NE", 
        "timestamp": "2017-08-15T04:49:26.271000Z"
      }, 
      {
        "empty_slots": 11, 
        "extra": {
          "address": null, 
          "last_updated": 1502770759, 
          "renting": 1, 
          "returning": 1, 
          "uid": "112"
        }, 
        "free_bikes": 4, 
        "id": "e143104593c6895a1d4d44ccbbe26bbb", 
        "latitude": 38.903827, 
        "longitude": -77.053485, 
        "name": "25th St & Pennsylvania Ave NW", 
        "timestamp": "2017-08-15T04:49:26.274000Z"
      }, 
      {
        "empty_slots": 25, 
        "extra": {
          "address": null, 
          "last_updated": 1502767529, 
          "renting": 1, 
          "returning": 1, 
          "uid": "113"
        }, 
        "free_bikes": 28, 
        "id": "7a03f9cbe938f3be78aa94c699049942", 
        "latitude": 38.89696, 
        "longitude": -77.00493, 
        "name": "Columbus Circle / Union Station", 
        "timestamp": "2017-08-15T04:49:26.273000Z"
      }, 
      {
        "empty_slots": 5, 
        "extra": {
          "address": null, 
          "last_updated": 1502768896, 
          "renting": 1, 
          "returning": 1, 
          "uid": "114"
        }, 
        "free_bikes": 18, 
        "id": "ff716772a70d89ad64d96aaa771c9494", 
        "latitude": 38.897446, 
        "longitude": -77.009888, 
        "name": "North Capitol St & F St NW", 
        "timestamp": "2017-08-15T04:49:26.269000Z"
      }, 
      {
        "empty_slots": 3, 
        "extra": {
          "address": null, 
          "last_updated": 1502769276, 
          "renting": 1, 
          "returning": 1, 
          "uid": "115"
        }, 
        "free_bikes": 14, 
        "id": "9d316eaf870ea77cb7243fdfa3b306c9", 
        "latitude": 38.905607, 
        "longitude": -77.027137, 
        "name": "11th & M St NW", 
        "timestamp": "2017-08-15T04:49:26.268000Z"
      }, 
      {
        "empty_slots": 8, 
        "extra": {
          "address": null, 
          "last_updated": 1502758774, 
          "renting": 1, 
          "returning": 1, 
          "uid": "116"
        }, 
        "free_bikes": 7, 
        "id": "f1ad7c95d81b9e2c03a3fc71ea62aa0e", 
        "latitude": 38.922581, 
        "longitude": -77.070334, 
        "name": "36th & Calvert St NW / Glover Park", 
        "timestamp": "2017-08-15T04:49:26.270000Z"
      }, 
      {
        "empty_slots": 16, 
        "extra": {
          "address": null, 
          "last_updated": 1502772311, 
          "renting": 1, 
          "returning": 1, 
          "uid": "117"
        }, 
        "free_bikes": 3, 
        "id": "aa8a23603f5c40bc1f91dd449792b111", 
        "latitude": 38.898069, 
        "longitude": -77.031823, 
        "name": "14th & G St NW", 
        "timestamp": "2017-08-15T04:49:26.269000Z"
      }, 
      {
        "empty_slots": 12, 
        "extra": {
          "address": null, 
          "last_updated": 1502767225, 
          "renting": 1, 
          "returning": 1, 
          "uid": "118"
        }, 
        "free_bikes": 11, 
        "id": "4fca4b61213be6551f5c112cd0e7907d", 
        "latitude": 38.844015, 
        "longitude": -77.050537, 
        "name": "Potomac Ave & 35th St S", 
        "timestamp": "2017-08-15T04:49:26.275000Z"
      }, 
      {
        "empty_slots": 14, 
        "extra": {
          "address": null, 
          "last_updated": 1502762366, 
          "renting": 1, 
          "returning": 1, 
          "uid": "125"
        }, 
        "free_bikes": 1, 
        "id": "00abd2eca7c192efc1e11e145dc9724e", 
        "latitude": 38.897857, 
        "longitude": -77.026975, 
        "name": "11th & F St NW", 
        "timestamp": "2017-08-15T04:49:26.143000Z"
      }, 
      {
        "empty_slots": 18, 
        "extra": {
          "address": null, 
          "last_updated": 1502772167, 
          "renting": 1, 
          "returning": 1, 
          "uid": "126"
        }, 
        "free_bikes": 1, 
        "id": "25332a4c40e48ee04b33d9cd6b70fee2", 
        "latitude": 38.896104, 
        "longitude": -77.049882, 
        "name": "23rd & E St NW ", 
        "timestamp": "2017-08-15T04:49:26.144000Z"
      }, 
      {
        "empty_slots": 7, 
        "extra": {
          "address": null, 
          "last_updated": 1502770179, 
          "renting": 1, 
          "returning": 1, 
          "uid": "127"
        }, 
        "free_bikes": 24, 
        "id": "1025a0b7d7d1989595bb856306a5be09", 
        "latitude": 38.897315, 
        "longitude": -77.070993, 
        "name": "Lynn & 19th St North", 
        "timestamp": "2017-08-15T04:49:26.145000Z"
      }, 
      {
        "empty_slots": 6, 
        "extra": {
          "address": null, 
          "last_updated": 1502760300, 
          "renting": 1, 
          "returning": 1, 
          "uid": "128"
        }, 
        "free_bikes": 12, 
        "id": "7277b89c1b3ee8c10e3723580fb998ed", 
        "latitude": 38.8946, 
        "longitude": -77.072305, 
        "name": "Rosslyn Metro / Wilson Blvd & Ft Myer Dr", 
        "timestamp": "2017-08-15T04:49:26.146000Z"
      }, 
      {
        "empty_slots": 9, 
        "extra": {
          "address": null, 
          "last_updated": 1502769669, 
          "renting": 1, 
          "returning": 1, 
          "uid": "130"
        }, 
        "free_bikes": 6, 
        "id": "cd8a79ed50887bcb8b7961545427c46f", 
        "latitude": 38.891696, 
        "longitude": -77.0846, 
        "name": "Wilson Blvd & N Uhle St", 
        "timestamp": "2017-08-15T04:49:26.007000Z"
      }, 
      {
        "empty_slots": 7, 
        "extra": {
          "address": null, 
          "last_updated": 1502756799, 
          "renting": 1, 
          "returning": 1, 
          "uid": "131"
        }, 
        "free_bikes": 4, 
        "id": "049d24b2dfe2df60291d339824504530", 
        "latitude": 38.892164, 
        "longitude": -77.079375, 
        "name": "N Rhodes & 16th St N", 
        "timestamp": "2017-08-15T04:49:26.006000Z"
      }, 
      {
        "empty_slots": 5, 
        "extra": {
          "address": null, 
          "last_updated": 1502711901, 
          "renting": 1, 
          "returning": 1, 
          "uid": "132"
        }, 
        "free_bikes": 9, 
        "id": "5d4c1a262d3e2c2e25be948ffec681ec", 
        "latitude": 38.86559, 
        "longitude": -76.952103, 
        "name": "Fairfax Village", 
        "timestamp": "2017-08-15T04:49:26.005000Z"
      }, 
      {
        "empty_slots": 9, 
        "extra": {
          "address": null, 
          "last_updated": 1502771406, 
          "renting": 1, 
          "returning": 1, 
          "uid": "133"
        }, 
        "free_bikes": 6, 
        "id": "e79daf3ac3d3c6804b015b0b6adc764e", 
        "latitude": 38.892459, 
        "longitude": -77.046567, 
        "name": "21st St & Constitution Ave NW", 
        "timestamp": "2017-08-15T04:49:26.004000Z"
      }, 
      {
        "empty_slots": 13, 
        "extra": {
          "address": null, 
          "last_updated": 1502767222, 
          "renting": 1, 
          "returning": 1, 
          "uid": "134"
        }, 
        "free_bikes": 1, 
        "id": "00636bdd1fc7235caaa728ac3c1cc1f3", 
        "latitude": 38.889, 
        "longitude": -77.0925, 
        "name": "Wilson Blvd & N Edgewood St", 
        "timestamp": "2017-08-15T04:49:26.010000Z"
      }, 
      {
        "empty_slots": 14, 
        "extra": {
          "address": null, 
          "last_updated": 1502770223, 
          "renting": 1, 
          "returning": 1, 
          "uid": "135"
        }, 
        "free_bikes": 5, 
        "id": "af564e6359837ed938d210556a0b004e", 
        "latitude": 38.920669, 
        "longitude": -77.04368, 
        "name": "Columbia Rd & Belmont St NW", 
        "timestamp": "2017-08-15T04:49:26.009000Z"
      }, 
      {
        "empty_slots": 30, 
        "extra": {
          "address": null, 
          "last_updated": 1502770385, 
          "renting": 1, 
          "returning": 1, 
          "uid": "137"
        }, 
        "free_bikes": 2, 
        "id": "d97d47808baa37c6678746742ae60cd0", 
        "latitude": 38.9059, 
        "longitude": -77.0325, 
        "name": "Thomas Circle", 
        "timestamp": "2017-08-15T04:49:26.008000Z"
      }, 
      {
        "empty_slots": 3, 
        "extra": {
          "address": null, 
          "last_updated": 1502766442, 
          "renting": 1, 
          "returning": 1, 
          "uid": "138"
        }, 
        "free_bikes": 8, 
        "id": "a7936ad828f296fa306649761bb7f647", 
        "latitude": 38.8904, 
        "longitude": -77.0889, 
        "name": "Wilson Blvd & Franklin Rd", 
        "timestamp": "2017-08-15T04:49:26.012000Z"
      }, 
      {
        "empty_slots": 10, 
        "extra": {
          "address": null, 
          "last_updated": 1502768684, 
          "renting": 1, 
          "returning": 1, 
          "uid": "139"
        }, 
        "free_bikes": 5, 
        "id": "215a110bb9f26db8f3ae90ff45b4c444", 
        "latitude": 38.8881, 
        "longitude": -77.09308, 
        "name": "Clarendon Blvd & N Fillmore St", 
        "timestamp": "2017-08-15T04:49:26.011000Z"
      }, 
      {
        "empty_slots": 9, 
        "extra": {
          "address": null, 
          "last_updated": 1502769554, 
          "renting": 1, 
          "returning": 1, 
          "uid": "140"
        }, 
        "free_bikes": 6, 
        "id": "842df2eac66e4653b5efbde3bd8272cd", 
        "latitude": 38.88786, 
        "longitude": -77.094875, 
        "name": "Clarendon Metro / Wilson Blvd & N Highland St", 
        "timestamp": "2017-08-15T04:49:26.001000Z"
      }, 
      {
        "empty_slots": 27, 
        "extra": {
          "address": null, 
          "last_updated": 1502767122, 
          "renting": 1, 
          "returning": 1, 
          "uid": "141"
        }, 
        "free_bikes": 0, 
        "id": "b0ab83157270a065dcea3705c1b0c9d2", 
        "latitude": 38.89968, 
        "longitude": -77.041539, 
        "name": "18th St & Pennsylvania Ave NW", 
        "timestamp": "2017-08-15T04:49:26.002000Z"
      }, 
      {
        "empty_slots": 32, 
        "extra": {
          "address": null, 
          "last_updated": 1502764883, 
          "renting": 1, 
          "returning": 1, 
          "uid": "142"
        }, 
        "free_bikes": 6, 
        "id": "36c7c2d9ce24666ef73616c44de12e8f", 
        "latitude": 38.887299, 
        "longitude": -77.018939, 
        "name": "Maryland & Independence Ave SW", 
        "timestamp": "2017-08-15T04:49:25.999000Z"
      }, 
      {
        "empty_slots": 9, 
        "extra": {
          "address": null, 
          "last_updated": 1502770584, 
          "renting": 1, 
          "returning": 1, 
          "uid": "143"
        }, 
        "free_bikes": 9, 
        "id": "a76603ba5139bfc1654650a732deb7fc", 
        "latitude": 38.88412, 
        "longitude": -77.017445, 
        "name": "4th & E St SW", 
        "timestamp": "2017-08-15T04:49:26Z"
      }, 
      {
        "empty_slots": 6, 
        "extra": {
          "address": null, 
          "last_updated": 1502766396, 
          "renting": 1, 
          "returning": 1, 
          "uid": "144"
        }, 
        "free_bikes": 13, 
        "id": "f72832e5aa0b1be27af045ea2df26dc0", 
        "latitude": 38.881185, 
        "longitude": -77.001828, 
        "name": "3rd & G St SE", 
        "timestamp": "2017-08-15T04:49:25.997000Z"
      }, 
      {
        "empty_slots": 1, 
        "extra": {
          "address": null, 
          "last_updated": 1502768914, 
          "renting": 1, 
          "returning": 1, 
          "uid": "145"
        }, 
        "free_bikes": 13, 
        "id": "df52b0525fe4e94f6981895f002bcc95", 
        "latitude": 38.912719, 
        "longitude": -77.022155, 
        "name": "7th & R St NW / Shaw Library", 
        "timestamp": "2017-08-15T04:49:25.998000Z"
      }, 
      {
        "empty_slots": 4, 
        "extra": {
          "address": null, 
          "last_updated": 1502769352, 
          "renting": 1, 
          "returning": 1, 
          "uid": "146"
        }, 
        "free_bikes": 11, 
        "id": "a2edb884ca0d83c4caad731ec82fb9f6", 
        "latitude": 38.9418, 
        "longitude": -77.0251, 
        "name": "9th & Upshur St NW", 
        "timestamp": "2017-08-15T04:49:25.995000Z"
      }, 
      {
        "empty_slots": 8, 
        "extra": {
          "address": null, 
          "last_updated": 1502768014, 
          "renting": 1, 
          "returning": 1, 
          "uid": "147"
        }, 
        "free_bikes": 5, 
        "id": "3d133c578cd7946fb8c5faeab650c4da", 
        "latitude": 38.915417, 
        "longitude": -77.012289, 
        "name": "1st & Rhode Island Ave NW", 
        "timestamp": "2017-08-15T04:49:25.996000Z"
      }, 
      {
        "empty_slots": 10, 
        "extra": {
          "address": null, 
          "last_updated": 1502772065, 
          "renting": 1, 
          "returning": 1, 
          "uid": "149"
        }, 
        "free_bikes": 9, 
        "id": "48f7abfea2a4412a8219ea2a39ef5275", 
        "latitude": 38.917761, 
        "longitude": -77.04062, 
        "name": "California St & Florida Ave NW", 
        "timestamp": "2017-08-15T04:49:26.004000Z"
      }, 
      {
        "empty_slots": 9, 
        "extra": {
          "address": null, 
          "last_updated": 1502769046, 
          "renting": 1, 
          "returning": 1, 
          "uid": "150"
        }, 
        "free_bikes": 10, 
        "id": "2666c1afc7cada8f1785c8f11f3969c4", 
        "latitude": 38.889935, 
        "longitude": -76.93723, 
        "name": "Benning Rd & East Capitol St NE / Benning Rd Metro", 
        "timestamp": "2017-08-15T04:49:26.309000Z"
      }, 
      {
        "empty_slots": 4, 
        "extra": {
          "address": null, 
          "last_updated": 1502760617, 
          "renting": 1, 
          "returning": 1, 
          "uid": "151"
        }, 
        "free_bikes": 11, 
        "id": "1fbce1e3044f07a4c472fab2dc287a61", 
        "latitude": 38.930282, 
        "longitude": -77.055599, 
        "name": "3000 Connecticut Ave NW / National Zoo", 
        "timestamp": "2017-08-15T04:49:26.307000Z"
      }, 
      {
        "empty_slots": 8, 
        "extra": {
          "address": null, 
          "last_updated": 1502756869, 
          "renting": 1, 
          "returning": 1, 
          "uid": "152"
        }, 
        "free_bikes": 7, 
        "id": "73cb6ee9fd8c2c2b50a71a538b7d4e9e", 
        "latitude": 38.896544, 
        "longitude": -76.96012, 
        "name": "Anacostia Ave & Benning Rd NE / River Terrace ", 
        "timestamp": "2017-08-15T04:49:26.311000Z"
      }, 
      {
        "empty_slots": 13, 
        "extra": {
          "address": null, 
          "last_updated": 1502766539, 
          "renting": 1, 
          "returning": 1, 
          "uid": "153"
        }, 
        "free_bikes": 5, 
        "id": "c805a1a42ce65a5cbe38266d29cba122", 
        "latitude": 38.905126, 
        "longitude": -77.056887, 
        "name": "M St & Pennsylvania Ave NW", 
        "timestamp": "2017-08-15T04:49:26.310000Z"
      }, 
      {
        "empty_slots": 2, 
        "extra": {
          "address": null, 
          "last_updated": 1502766624, 
          "renting": 1, 
          "returning": 1, 
          "uid": "154"
        }, 
        "free_bikes": 13, 
        "id": "50dddf486a3424b75ec64425e752f986", 
        "latitude": 38.88732, 
        "longitude": -76.983569, 
        "name": "15th St & Massachusetts Ave SE", 
        "timestamp": "2017-08-15T04:49:26.314000Z"
      }, 
      {
        "empty_slots": 6, 
        "extra": {
          "address": null, 
          "last_updated": 1502758689, 
          "renting": 1, 
          "returning": 1, 
          "uid": "155"
        }, 
        "free_bikes": 9, 
        "id": "14a2ee2e383ef46b2f1f8fcfb00be67f", 
        "latitude": 38.844711, 
        "longitude": -76.987823, 
        "name": "Congress Heights Metro", 
        "timestamp": "2017-08-15T04:49:26.313000Z"
      }, 
      {
        "empty_slots": 5, 
        "extra": {
          "address": null, 
          "last_updated": 1502765673, 
          "renting": 1, 
          "returning": 1, 
          "uid": "156"
        }, 
        "free_bikes": 6, 
        "id": "4bf1eca02cc3cc2d0d088937336ce00a", 
        "latitude": 38.876393, 
        "longitude": -77.107735, 
        "name": "N Quincy St & Glebe Rd", 
        "timestamp": "2017-08-15T04:49:26.317000Z"
      }, 
      {
        "empty_slots": 5, 
        "extra": {
          "address": null, 
          "last_updated": 1502753657, 
          "renting": 1, 
          "returning": 1, 
          "uid": "158"
        }, 
        "free_bikes": 9, 
        "id": "81b0f78148f78fda6f1e1ffba8855661", 
        "latitude": 38.896923, 
        "longitude": -77.086502, 
        "name": "N Veitch  & 20th St N", 
        "timestamp": "2017-08-15T04:49:26.320000Z"
      }, 
      {
        "empty_slots": 7, 
        "extra": {
          "address": null, 
          "last_updated": 1502764437, 
          "renting": 1, 
          "returning": 1, 
          "uid": "160"
        }, 
        "free_bikes": 4, 
        "id": "dcf8e5a70d6072999c3539a04006dc1e", 
        "latitude": 38.885801, 
        "longitude": -77.097745, 
        "name": "Fairfax Dr & Wilson Blvd", 
        "timestamp": "2017-08-15T04:49:26.212000Z"
      }, 
      {
        "empty_slots": 10, 
        "extra": {
          "address": null, 
          "last_updated": 1502751435, 
          "renting": 1, 
          "returning": 1, 
          "uid": "161"
        }, 
        "free_bikes": 1, 
        "id": "758340a8f77db9c007ac14e55e6dec78", 
        "latitude": 38.896015, 
        "longitude": -77.078107, 
        "name": "Key Blvd & N Quinn St", 
        "timestamp": "2017-08-15T04:49:26.213000Z"
      }, 
      {
        "empty_slots": 1, 
        "extra": {
          "address": null, 
          "last_updated": 1502767750, 
          "renting": 1, 
          "returning": 1, 
          "uid": "162"
        }, 
        "free_bikes": 11, 
        "id": "2dc7914bc29d8c22612cb9ec4e5e91d0", 
        "latitude": 38.87861, 
        "longitude": -77.006004, 
        "name": "1st & K St SE", 
        "timestamp": "2017-08-15T04:49:26.214000Z"
      }, 
      {
        "empty_slots": 8, 
        "extra": {
          "address": null, 
          "last_updated": 1502757621, 
          "renting": 1, 
          "returning": 1, 
          "uid": "163"
        }, 
        "free_bikes": 10, 
        "id": "e6921f6b19cd5ea8645a79be78463ec3", 
        "latitude": 38.922649, 
        "longitude": -77.077271, 
        "name": "39th & Calvert St NW / Stoddert", 
        "timestamp": "2017-08-15T04:49:26.214000Z"
      }, 
      {
        "empty_slots": 7, 
        "extra": {
          "address": null, 
          "last_updated": 1502768304, 
          "renting": 1, 
          "returning": 1, 
          "uid": "164"
        }, 
        "free_bikes": 8, 
        "id": "8ada479e196795918bc9f2c2da802e16", 
        "latitude": 38.928743, 
        "longitude": -77.012457, 
        "name": "1st & Washington Hospital Center NW", 
        "timestamp": "2017-08-15T04:49:26.209000Z"
      }, 
      {
        "empty_slots": 17, 
        "extra": {
          "address": null, 
          "last_updated": 1502767448, 
          "renting": 1, 
          "returning": 1, 
          "uid": "165"
        }, 
        "free_bikes": 2, 
        "id": "812d4bb7c649f4842b1b68c421577bdf", 
        "latitude": 38.882788, 
        "longitude": -77.103148, 
        "name": "Virginia Square Metro / N Monroe St & 9th St N", 
        "timestamp": "2017-08-15T04:49:26.209000Z"
      }, 
      {
        "empty_slots": 5, 
        "extra": {
          "address": null, 
          "last_updated": 1502756214, 
          "renting": 1, 
          "returning": 1, 
          "uid": "166"
        }, 
        "free_bikes": 6, 
        "id": "714a2f4bbc22eb04c9259b714fc4d00e", 
        "latitude": 38.88397, 
        "longitude": -77.10783, 
        "name": "Central Library / N Quincy St & 10th St N", 
        "timestamp": "2017-08-15T04:49:26.210000Z"
      }, 
      {
        "empty_slots": 11, 
        "extra": {
          "address": null, 
          "last_updated": 1502754587, 
          "renting": 1, 
          "returning": 1, 
          "uid": "167"
        }, 
        "free_bikes": 3, 
        "id": "1001142bdca7be2e50f8de0ef9a9c43a", 
        "latitude": 38.884734, 
        "longitude": -77.093485, 
        "name": "Washington Blvd & 10th St N", 
        "timestamp": "2017-08-15T04:49:26.211000Z"
      }, 
      {
        "empty_slots": 19, 
        "extra": {
          "address": null, 
          "last_updated": 1502769326, 
          "renting": 1, 
          "returning": 1, 
          "uid": "168"
        }, 
        "free_bikes": 2, 
        "id": "6630c9fcab0812976b247a5c8b0e9e6f", 
        "latitude": 38.888553, 
        "longitude": -77.032429, 
        "name": "Jefferson Dr & 14th St SW", 
        "timestamp": "2017-08-15T04:49:26.207000Z"
      }, 
      {
        "empty_slots": 19, 
        "extra": {
          "address": null, 
          "last_updated": 1502771622, 
          "renting": 1, 
          "returning": 1, 
          "uid": "169"
        }, 
        "free_bikes": 0, 
        "id": "76ec9596f4129bf2cba746502271bc3e", 
        "latitude": 38.888767, 
        "longitude": -77.02858, 
        "name": "Smithsonian-National Mall / Jefferson Dr & 12th St SW", 
        "timestamp": "2017-08-15T04:49:26.208000Z"
      }, 
      {
        "empty_slots": 6, 
        "extra": {
          "address": null, 
          "last_updated": 1502764046, 
          "renting": 1, 
          "returning": 1, 
          "uid": "170"
        }, 
        "free_bikes": 9, 
        "id": "60c2caba45ade1a2c8f776c44dde255e", 
        "latitude": 38.87887, 
        "longitude": -77.1207, 
        "name": "George Mason Dr & Wilson Blvd", 
        "timestamp": "2017-08-15T04:49:26.081000Z"
      }, 
      {
        "empty_slots": 14, 
        "extra": {
          "address": null, 
          "last_updated": 1502768703, 
          "renting": 1, 
          "returning": 1, 
          "uid": "171"
        }, 
        "free_bikes": 5, 
        "id": "153fbc815b4c4696ba8f7c49de119901", 
        "latitude": 38.894573, 
        "longitude": -77.01994, 
        "name": "6th St & Indiana Ave NW", 
        "timestamp": "2017-08-15T04:49:26.080000Z"
      }, 
      {
        "empty_slots": 6, 
        "extra": {
          "address": null, 
          "last_updated": 1502759152, 
          "renting": 1, 
          "returning": 1, 
          "uid": "172"
        }, 
        "free_bikes": 5, 
        "id": "db1d99527e001c1bfba20a2d8a7bd84b", 
        "latitude": 38.893241, 
        "longitude": -77.086045, 
        "name": "N Veitch & Key Blvd", 
        "timestamp": "2017-08-15T04:49:26.080000Z"
      }, 
      {
        "empty_slots": 8, 
        "extra": {
          "address": null, 
          "last_updated": 1502766697, 
          "renting": 1, 
          "returning": 1, 
          "uid": "173"
        }, 
        "free_bikes": 11, 
        "id": "eb94d738966f854fec336c23ad6d4a25", 
        "latitude": 38.89593, 
        "longitude": -77.089006, 
        "name": "Lee Hwy & N Adams St", 
        "timestamp": "2017-08-15T04:49:26.079000Z"
      }, 
      {
        "empty_slots": 3, 
        "extra": {
          "address": null, 
          "last_updated": 1502764093, 
          "renting": 1, 
          "returning": 1, 
          "uid": "174"
        }, 
        "free_bikes": 8, 
        "id": "0bb5d67ba87ef439b3d1a9ba8827a947", 
        "latitude": 38.89054, 
        "longitude": -77.08095, 
        "name": "15th & N Scott St", 
        "timestamp": "2017-08-15T04:49:26.078000Z"
      }, 
      {
        "empty_slots": 3, 
        "extra": {
          "address": null, 
          "last_updated": 1502757106, 
          "renting": 1, 
          "returning": 1, 
          "uid": "175"
        }, 
        "free_bikes": 7, 
        "id": "703366f13e61db303e84a89f6f10678c", 
        "latitude": 38.880834, 
        "longitude": -77.091129, 
        "name": "Washington Blvd & 7th St N", 
        "timestamp": "2017-08-15T04:49:26.077000Z"
      }, 
      {
        "empty_slots": 20, 
        "extra": {
          "address": null, 
          "last_updated": 1502763830, 
          "renting": 1, 
          "returning": 1, 
          "uid": "176"
        }, 
        "free_bikes": 3, 
        "id": "10dc96fc987f082d44fdc5c6590764de", 
        "latitude": 38.881044, 
        "longitude": -77.111768, 
        "name": "Ballston Metro / N Stuart & 9th St N", 
        "timestamp": "2017-08-15T04:49:26.076000Z"
      }, 
      {
        "empty_slots": 9, 
        "extra": {
          "address": null, 
          "last_updated": 1502758391, 
          "renting": 1, 
          "returning": 1, 
          "uid": "177"
        }, 
        "free_bikes": 1, 
        "id": "5425916bcb8122bbf2238ea1196f5442", 
        "latitude": 38.882629, 
        "longitude": -77.109366, 
        "name": "N Randolph St & Fairfax Dr", 
        "timestamp": "2017-08-15T04:49:26.075000Z"
      }, 
      {
        "empty_slots": 13, 
        "extra": {
          "address": null, 
          "last_updated": 1502771891, 
          "renting": 1, 
          "returning": 1, 
          "uid": "178"
        }, 
        "free_bikes": 10, 
        "id": "fe2edd28d5b687fd4873b08217614329", 
        "latitude": 38.879819, 
        "longitude": -77.037413, 
        "name": "Jefferson Memorial", 
        "timestamp": "2017-08-15T04:49:26.075000Z"
      }, 
      {
        "empty_slots": 6, 
        "extra": {
          "address": null, 
          "last_updated": 1502766726, 
          "renting": 1, 
          "returning": 1, 
          "uid": "179"
        }, 
        "free_bikes": 9, 
        "id": "7e1e495ceef0d2244bd734978c37a605", 
        "latitude": 38.866611, 
        "longitude": -76.985238, 
        "name": "Good Hope Rd & 14th St SE", 
        "timestamp": "2017-08-15T04:49:26.073000Z"
      }, 
      {
        "empty_slots": 4, 
        "extra": {
          "address": null, 
          "last_updated": 1502763633, 
          "renting": 1, 
          "returning": 1, 
          "uid": "180"
        }, 
        "free_bikes": 7, 
        "id": "4a3e761c8052180b6091e534c9dc588c", 
        "latitude": 38.883921, 
        "longitude": -77.116817, 
        "name": "Glebe Rd & 11th St N", 
        "timestamp": "2017-08-15T04:49:26.085000Z"
      }, 
      {
        "empty_slots": 3, 
        "extra": {
          "address": null, 
          "last_updated": 1502759711, 
          "renting": 1, 
          "returning": 1, 
          "uid": "182"
        }, 
        "free_bikes": 7, 
        "id": "353942f275f45723bad0edf445493d00", 
        "latitude": 38.884616, 
        "longitude": -77.10108, 
        "name": "Fairfax Dr & Kenmore St", 
        "timestamp": "2017-08-15T04:49:26.083000Z"
      }, 
      {
        "empty_slots": 6, 
        "extra": {
          "address": null, 
          "last_updated": 1502771357, 
          "renting": 1, 
          "returning": 1, 
          "uid": "183"
        }, 
        "free_bikes": 13, 
        "id": "4a0f6035309cf58f92f7cd4a96f63c27", 
        "latitude": 38.90509, 
        "longitude": -76.9941, 
        "name": "Gallaudet / 8th St & Florida Ave NE", 
        "timestamp": "2017-08-15T04:49:26.084000Z"
      }, 
      {
        "empty_slots": 18, 
        "extra": {
          "address": null, 
          "last_updated": 1502769734, 
          "renting": 1, 
          "returning": 1, 
          "uid": "185"
        }, 
        "free_bikes": 1, 
        "id": "66d76e3b489d63e2aec287b450d4ab4f", 
        "latitude": 38.903584, 
        "longitude": -77.044789, 
        "name": "20th & L St NW", 
        "timestamp": "2017-08-15T04:49:26.088000Z"
      }, 
      {
        "empty_slots": 19, 
        "extra": {
          "address": null, 
          "last_updated": 1502771928, 
          "renting": 1, 
          "returning": 1, 
          "uid": "187"
        }, 
        "free_bikes": 0, 
        "id": "b131a5424db6615b8b0169c751ef1a3f", 
        "latitude": 38.901539, 
        "longitude": -77.046564, 
        "name": "21st St & Pennsylvania Ave NW", 
        "timestamp": "2017-08-15T04:49:26.087000Z"
      }, 
      {
        "empty_slots": 23, 
        "extra": {
          "address": null, 
          "last_updated": 1502766660, 
          "renting": 1, 
          "returning": 1, 
          "uid": "188"
        }, 
        "free_bikes": 0, 
        "id": "f3543a0b3ec1b7517ff9823da878dc7f", 
        "latitude": 38.902204, 
        "longitude": -77.04337, 
        "name": "19th & K St NW", 
        "timestamp": "2017-08-15T04:49:26.089000Z"
      }, 
      {
        "empty_slots": 14, 
        "extra": {
          "address": null, 
          "last_updated": 1502768541, 
          "renting": 1, 
          "returning": 1, 
          "uid": "189"
        }, 
        "free_bikes": 5, 
        "id": "594e9225916f7af7579a19d6c057a4c5", 
        "latitude": 38.803124, 
        "longitude": -77.040363, 
        "name": "Prince St & Union St", 
        "timestamp": "2017-08-15T04:49:26.090000Z"
      }, 
      {
        "empty_slots": 11, 
        "extra": {
          "address": null, 
          "last_updated": 1502765963, 
          "renting": 1, 
          "returning": 1, 
          "uid": "190"
        }, 
        "free_bikes": 4, 
        "id": "6f1cff89300e70c33835479f02a19584", 
        "latitude": 38.804718, 
        "longitude": -77.043363, 
        "name": "Market Square / King St & Royal St", 
        "timestamp": "2017-08-15T04:49:25.918000Z"
      }, 
      {
        "empty_slots": 6, 
        "extra": {
          "address": null, 
          "last_updated": 1502753233, 
          "renting": 1, 
          "returning": 1, 
          "uid": "191"
        }, 
        "free_bikes": 9, 
        "id": "ef16a4ba8f876236d1135b93c2868b20", 
        "latitude": 38.810743, 
        "longitude": -77.044664, 
        "name": "Saint Asaph St & Pendleton  St", 
        "timestamp": "2017-08-15T04:49:25.917000Z"
      }, 
      {
        "empty_slots": 11, 
        "extra": {
          "address": null, 
          "last_updated": 1502764741, 
          "renting": 1, 
          "returning": 1, 
          "uid": "192"
        }, 
        "free_bikes": 4, 
        "id": "70b7ad83f1a63e5876182f995a8b7e5a", 
        "latitude": 38.805317, 
        "longitude": -77.049883, 
        "name": "King St & Patrick St", 
        "timestamp": "2017-08-15T04:49:25.919000Z"
      }, 
      {
        "empty_slots": 25, 
        "extra": {
          "address": null, 
          "last_updated": 1502766213, 
          "renting": 1, 
          "returning": 1, 
          "uid": "193"
        }, 
        "free_bikes": 2, 
        "id": "661b9644f15bc8d3195bafbf3d41e87d", 
        "latitude": 38.902, 
        "longitude": -77.03353, 
        "name": "15th & K St NW", 
        "timestamp": "2017-08-15T04:49:25.919000Z"
      }, 
      {
        "empty_slots": 6, 
        "extra": {
          "address": null, 
          "last_updated": 1502764737, 
          "renting": 1, 
          "returning": 1, 
          "uid": "194"
        }, 
        "free_bikes": 9, 
        "id": "d52a4e552c8520b43d16ba41d6130bb7", 
        "latitude": 38.805648, 
        "longitude": -77.05293, 
        "name": "Commerce St & Fayette St", 
        "timestamp": "2017-08-15T04:49:25.914000Z"
      }, 
      {
        "empty_slots": 9, 
        "extra": {
          "address": null, 
          "last_updated": 1502756001, 
          "renting": 1, 
          "returning": 1, 
          "uid": "195"
        }, 
        "free_bikes": 8, 
        "id": "a41d65e7c78a18d28d413a0a1883ca72", 
        "latitude": 38.811456, 
        "longitude": -77.050276, 
        "name": "Henry St & Pendleton St", 
        "timestamp": "2017-08-15T04:49:25.913000Z"
      }, 
      {
        "empty_slots": 18, 
        "extra": {
          "address": null, 
          "last_updated": 1502762346, 
          "renting": 1, 
          "returning": 1, 
          "uid": "196"
        }, 
        "free_bikes": 11, 
        "id": "f568a2c24f6c3741502fb9e9f791fbe6", 
        "latitude": 38.814577, 
        "longitude": -77.052808, 
        "name": "Braddock Rd Metro", 
        "timestamp": "2017-08-15T04:49:25.916000Z"
      }, 
      {
        "empty_slots": 13, 
        "extra": {
          "address": null, 
          "last_updated": 1502759184, 
          "renting": 1, 
          "returning": 1, 
          "uid": "197"
        }, 
        "free_bikes": 9, 
        "id": "f7f2d0310c2d43c580984d8b71cb12dd", 
        "latitude": 38.805767, 
        "longitude": -77.06072, 
        "name": "King St Metro South", 
        "timestamp": "2017-08-15T04:49:25.915000Z"
      }, 
      {
        "empty_slots": 13, 
        "extra": {
          "address": null, 
          "last_updated": 1502767954, 
          "renting": 1, 
          "returning": 1, 
          "uid": "198"
        }, 
        "free_bikes": 2, 
        "id": "15c0aedd724bf86b3293c0ebf0049498", 
        "latitude": 38.9066, 
        "longitude": -77.05152, 
        "name": "24th & N St NW", 
        "timestamp": "2017-08-15T04:49:25.912000Z"
      }, 
      {
        "empty_slots": 13, 
        "extra": {
          "address": null, 
          "last_updated": 1502772120, 
          "renting": 1, 
          "returning": 1, 
          "uid": "199"
        }, 
        "free_bikes": 1, 
        "id": "bc88278c7243a9f2fbf6cfde22841db2", 
        "latitude": 38.895914, 
        "longitude": -77.026064, 
        "name": "10th & E St NW", 
        "timestamp": "2017-08-15T04:49:25.912000Z"
      }, 
      {
        "empty_slots": 13, 
        "extra": {
          "address": null, 
          "last_updated": 1502766910, 
          "renting": 1, 
          "returning": 1, 
          "uid": "200"
        }, 
        "free_bikes": 1, 
        "id": "1d3e16d324e455f4b1a17ba53ffd9a19", 
        "latitude": 38.90088, 
        "longitude": -77.048911, 
        "name": "22nd & I St NW / Foggy Bottom", 
        "timestamp": "2017-08-15T04:49:26.110000Z"
      }, 
      {
        "empty_slots": 10, 
        "extra": {
          "address": null, 
          "last_updated": 1502754886, 
          "renting": 1, 
          "returning": 1, 
          "uid": "201"
        }, 
        "free_bikes": 1, 
        "id": "ca7edd09fa81cab22486a8e1e378763c", 
        "latitude": 38.883669, 
        "longitude": -77.113905, 
        "name": "Utah St & 11th St N ", 
        "timestamp": "2017-08-15T04:49:26.109000Z"
      }, 
      {
        "empty_slots": 6, 
        "extra": {
          "address": null, 
          "last_updated": 1502752778, 
          "renting": 1, 
          "returning": 1, 
          "uid": "202"
        }, 
        "free_bikes": 4, 
        "id": "ff9d6c6ce4e53820d51b62349c58bef9", 
        "latitude": 38.884961, 
        "longitude": -77.08777, 
        "name": "Barton St & 10th St N", 
        "timestamp": "2017-08-15T04:49:26.112000Z"
      }, 
      {
        "empty_slots": 0, 
        "extra": {
          "address": null, 
          "last_updated": 1502768833, 
          "renting": 1, 
          "returning": 1, 
          "uid": "203"
        }, 
        "free_bikes": 11, 
        "id": "14e049b682086ef854d89523a25a8103", 
        "latitude": 38.889365, 
        "longitude": -77.077294, 
        "name": "Arlington Blvd & N Queen St", 
        "timestamp": "2017-08-15T04:49:26.111000Z"
      }, 
      {
        "empty_slots": 13, 
        "extra": {
          "address": null, 
          "last_updated": 1502772126, 
          "renting": 1, 
          "returning": 1, 
          "uid": "204"
        }, 
        "free_bikes": 11, 
        "id": "8134568222f53661b087bcc6dd427f6a", 
        "latitude": 38.888251, 
        "longitude": -77.049426, 
        "name": "Lincoln Memorial", 
        "timestamp": "2017-08-15T04:49:26.112000Z"
      }, 
      {
        "empty_slots": 13, 
        "extra": {
          "address": null, 
          "last_updated": 1502768823, 
          "renting": 1, 
          "returning": 1, 
          "uid": "206"
        }, 
        "free_bikes": 2, 
        "id": "76e76bd028d5a53b0b1914d40ee3459c", 
        "latitude": 38.894722, 
        "longitude": -77.045128, 
        "name": "20th St & Virginia Ave NW", 
        "timestamp": "2017-08-15T04:49:26.114000Z"
      }, 
      {
        "empty_slots": 3, 
        "extra": {
          "address": null, 
          "last_updated": 1502771397, 
          "renting": 1, 
          "returning": 1, 
          "uid": "207"
        }, 
        "free_bikes": 16, 
        "id": "1259edcddd4254ccc0777cd5024fc8cd", 
        "latitude": 38.90093, 
        "longitude": -77.018677, 
        "name": "5th St & Massachusetts Ave NW", 
        "timestamp": "2017-08-15T04:49:26.113000Z"
      }, 
      {
        "empty_slots": 9, 
        "extra": {
          "address": null, 
          "last_updated": 1502765839, 
          "renting": 1, 
          "returning": 1, 
          "uid": "208"
        }, 
        "free_bikes": 6, 
        "id": "0fa2a4661465933f7f8a7a9bbbcebd45", 
        "latitude": 38.943837, 
        "longitude": -77.077078, 
        "name": "39th & Veazey St NW", 
        "timestamp": "2017-08-15T04:49:26.116000Z"
      }, 
      {
        "empty_slots": 5, 
        "extra": {
          "address": null, 
          "last_updated": 1502765130, 
          "renting": 1, 
          "returning": 1, 
          "uid": "209"
        }, 
        "free_bikes": 10, 
        "id": "ecac8b25d50a7e8fad6b1b1ab77b268b", 
        "latitude": 38.954812, 
        "longitude": -77.082426, 
        "name": "Fessenden St & Wisconsin Ave NW", 
        "timestamp": "2017-08-15T04:49:26.115000Z"
      }, 
      {
        "empty_slots": 13, 
        "extra": {
          "address": null, 
          "last_updated": 1502769421, 
          "renting": 1, 
          "returning": 1, 
          "uid": "210"
        }, 
        "free_bikes": 10, 
        "id": "64d08a0fe48fe5fc1a89dd8243694614", 
        "latitude": 38.905707, 
        "longitude": -77.003041, 
        "name": "M St & Delaware Ave NE", 
        "timestamp": "2017-08-15T04:49:26.230000Z"
      }, 
      {
        "empty_slots": 6, 
        "extra": {
          "address": null, 
          "last_updated": 1502752949, 
          "renting": 1, 
          "returning": 1, 
          "uid": "211"
        }, 
        "free_bikes": 9, 
        "id": "acb09462e51f76efe51f0d6097e190db", 
        "latitude": 38.863833, 
        "longitude": -77.080319, 
        "name": "Columbia Pike & S Courthouse Rd", 
        "timestamp": "2017-08-15T04:49:26.231000Z"
      }, 
      {
        "empty_slots": 4, 
        "extra": {
          "address": null, 
          "last_updated": 1502753341, 
          "renting": 1, 
          "returning": 1, 
          "uid": "212"
        }, 
        "free_bikes": 7, 
        "id": "b957d530f0bffbb087c497b0d6769352", 
        "latitude": 38.857803, 
        "longitude": -77.086733, 
        "name": "Walter Reed Community Center / Walter Reed Dr & 16th St S", 
        "timestamp": "2017-08-15T04:49:26.229000Z"
      }, 
      {
        "empty_slots": 1, 
        "extra": {
          "address": null, 
          "last_updated": 1502755064, 
          "renting": 1, 
          "returning": 1, 
          "uid": "213"
        }, 
        "free_bikes": 14, 
        "id": "b8c501d3cb9bb0bf0894a0fd9d73aad1", 
        "latitude": 38.846222, 
        "longitude": -77.069275, 
        "name": "28th St S & S Meade St", 
        "timestamp": "2017-08-15T04:49:26.229000Z"
      }, 
      {
        "empty_slots": 10, 
        "extra": {
          "address": null, 
          "last_updated": 1502771444, 
          "renting": 1, 
          "returning": 1, 
          "uid": "214"
        }, 
        "free_bikes": 13, 
        "id": "5fc12f99f030fa0cd5494d3ce8155e3d", 
        "latitude": 38.918809, 
        "longitude": -77.041571, 
        "name": "18th St & Wyoming Ave NW", 
        "timestamp": "2017-08-15T04:49:26.227000Z"
      }, 
      {
        "empty_slots": 4, 
        "extra": {
          "address": null, 
          "last_updated": 1502760103, 
          "renting": 1, 
          "returning": 1, 
          "uid": "216"
        }, 
        "free_bikes": 14, 
        "id": "7987af745efd4861304fcc07dc68ffb7", 
        "latitude": 38.949662, 
        "longitude": -77.027333, 
        "name": "Georgia Ave & Emerson St NW", 
        "timestamp": "2017-08-15T04:49:26.225000Z"
      }, 
      {
        "empty_slots": 3, 
        "extra": {
          "address": null, 
          "last_updated": 1502769492, 
          "renting": 1, 
          "returning": 1, 
          "uid": "217"
        }, 
        "free_bikes": 15, 
        "id": "08a0a5f3d0cf1a6838d5b1ed7ae2107a", 
        "latitude": 38.942016, 
        "longitude": -77.032652, 
        "name": "14th & Upshur St NW", 
        "timestamp": "2017-08-15T04:49:26.226000Z"
      }, 
      {
        "empty_slots": 9, 
        "extra": {
          "address": null, 
          "last_updated": 1502757495, 
          "renting": 1, 
          "returning": 1, 
          "uid": "218"
        }, 
        "free_bikes": 10, 
        "id": "b82dde735f6fd5cf51017112aad4d25e", 
        "latitude": 38.956432, 
        "longitude": -77.032947, 
        "name": "14th St & Colorado Ave NW", 
        "timestamp": "2017-08-15T04:49:26.232000Z"
      }, 
      {
        "empty_slots": 1, 
        "extra": {
          "address": null, 
          "last_updated": 1502761641, 
          "renting": 1, 
          "returning": 1, 
          "uid": "219"
        }, 
        "free_bikes": 10, 
        "id": "25254079d21da75254da4e08764dd843", 
        "latitude": 38.847977, 
        "longitude": -77.075104, 
        "name": "S Troy St & 26th St S", 
        "timestamp": "2017-08-15T04:49:26.233000Z"
      }, 
      {
        "empty_slots": 6, 
        "extra": {
          "address": null, 
          "last_updated": 1502766326, 
          "renting": 1, 
          "returning": 1, 
          "uid": "220"
        }, 
        "free_bikes": 5, 
        "id": "38510dda4b0e1e48df12bf2708bfeaa2", 
        "latitude": 38.8444, 
        "longitude": -77.085931, 
        "name": "S Four Mile Run Dr & S Shirlington Rd", 
        "timestamp": "2017-08-15T04:49:26.304000Z"
      }, 
      {
        "empty_slots": 4, 
        "extra": {
          "address": null, 
          "last_updated": 1502763066, 
          "renting": 1, 
          "returning": 1, 
          "uid": "221"
        }, 
        "free_bikes": 7, 
        "id": "526ba43f66e5528a9954ebfa8670de3a", 
        "latitude": 38.860789, 
        "longitude": -77.09586, 
        "name": "S Oakland St & Columbia Pike", 
        "timestamp": "2017-08-15T04:49:26.303000Z"
      }, 
      {
        "empty_slots": 6, 
        "extra": {
          "address": null, 
          "last_updated": 1502762315, 
          "renting": 1, 
          "returning": 1, 
          "uid": "223"
        }, 
        "free_bikes": 9, 
        "id": "810490a879b47cfbde6f727402a173d9", 
        "latitude": 38.84232, 
        "longitude": -77.089555, 
        "name": "S Arlington Mill Dr & Campbell Ave", 
        "timestamp": "2017-08-15T04:49:26.300000Z"
      },