{
  "network": {
    "company": [
      "Cyclopolis Systems"
    ], 
    "href": "/v2/networks/cyclopolis-kiato", 
    "id": "cyclopolis-kiato", 
    "location": {
      "city": "K\u03b9ato", 
      "country": "GR", 
      "latitude": 38.0132674508, 
      "longitude": 22.7493819902
    }, 
    "name": "Cyclopolis", 
    "stations": [
      {
        "empty_slots": 0, 
        "extra": {
          "closed": true, 
          "slots": 8
        }, 
        "free_bikes": 0, 
        "id": "404f4b2aa8880ade98d5cfde4954e04c", 
        "latitude": 38.0132674507921, 
        "longitude": 22.74938199021, 
        "name": "PEZODROMOS CLEISTHENOUS", 
        "timestamp": "2017-08-15T04:47:56.427000Z"
      }, 
      {
        "empty_slots": 0, 
        "extra": {
          "closed": true, 
          "slots": 8
        }, 
        "free_bikes": 0, 
        "id": "49bf4d80ad6b1a7d1815dff1fbc1780c", 
        "latitude": 38.009047771244, 
        "longitude": 22.7510624890745, 
        "name": "LYSIPPOS SQUARE", 
        "timestamp": "2017-08-15T04:47:56.430000Z"
      }, 
      {
        "empty_slots": 0, 
        "extra": {
          "closed": true, 
          "slots": 8
        }, 
        "free_bikes": 0, 
        "id": "f1b951002145e4b936cf6f4b38141d0a", 
        "latitude": 38.0241646382803, 
        "longitude": 22.7351139628814, 
        "name": "PEFKIAS - KATO DIMINIO", 
        "timestamp": "2017-08-15T04:47:56.431000Z"
      }, 
      {
        "empty_slots": 0, 
        "extra": {
          "closed": true, 
          "slots": 8
        }, 
        "free_bikes": 0, 
        "id": "da8937e0cf83abc0f9f6b555ab21d4fb", 
        "latitude": 38.0098102857666, 
        "longitude": 22.7397081948914, 
        "name": "SUBURBAN RAILWAY", 
        "timestamp": "2017-08-15T04:47:56.432000Z"
      }
    ]
  }
}