{
  "network": {
    "company": [
      "Comunicare S.r.l."
    ], 
    "href": "/v2/networks/e-motion-trento", 
    "id": "e-motion-trento", 
    "location": {
      "city": "Trento", 
      "country": "IT", 
      "latitude": 46.06643205823519, 
      "longitude": 11.122145390351879
    }, 
    "name": "e.motion", 
    "stations": [
      {
        "empty_slots": 8, 
        "extra": {
          "description": "Via Fogazzaro / Via Gocciadoro", 
          "status": "online"
        }, 
        "free_bikes": 3, 
        "id": "251e79c235bd6edd4aa0ac50f06011a9", 
        "latitude": 46.05627509524844, 
        "longitude": 11.13094278895494, 
        "name": "Piscina", 
        "timestamp": "2017-08-15T04:46:57.149000Z"
      }, 
      {
        "empty_slots": 7, 
        "extra": {
          "description": "Via Guardini fr. civ. 75", 
          "status": "online"
        }, 
        "free_bikes": 11, 
        "id": "ddc5cbfcc6fcbf20db9173e2f94a8c91", 
        "latitude": 46.094653868146885, 
        "longitude": 11.117693389024225, 
        "name": "Bren Center", 
        "timestamp": "2017-08-15T04:46:57.126000Z"
      }, 
      {
        "empty_slots": 9, 
        "extra": {
          "description": "P.le di Centa / Via Vannetti", 
          "status": "online"
        }, 
        "free_bikes": 2, 
        "id": "23a35a752e9cebf78540df1cf336f73d", 
        "latitude": 46.07538723420181, 
        "longitude": 11.12382177686004, 
        "name": "Piazza di Centa", 
        "timestamp": "2017-08-15T04:46:57.138000Z"
      }, 
      {
        "empty_slots": 19, 
        "extra": {
          "description": "Via Grazioli / P.za Venezia", 
          "status": "online"
        }, 
        "free_bikes": 4, 
        "id": "36fd8632ac37d95c79335c71dce81041", 
        "latitude": 46.06753791402558, 
        "longitude": 11.126987115869156, 
        "name": "Piazza Venezia", 
        "timestamp": "2017-08-15T04:46:57.139000Z"
      }, 
      {
        "empty_slots": 9, 
        "extra": {
          "description": "P.za della Mostra 30", 
          "status": "online"
        }, 
        "free_bikes": 3, 
        "id": "2a971174fb5536d92bea40c8dad337f4", 
        "latitude": 46.071784324082046, 
        "longitude": 11.125761136176266, 
        "name": "Piazza della Mostra", 
        "timestamp": "2017-08-15T04:46:57.145000Z"
      }, 
      {
        "empty_slots": 8, 
        "extra": {
          "description": "Via Pozzo / Via Torre Vanga", 
          "status": "online"
        }, 
        "free_bikes": 7, 
        "id": "36ede7df0b2e66077c822c33e41bb84a", 
        "latitude": 46.07023563810641, 
        "longitude": 11.119849430688419, 
        "name": "Stazione Autocorriere", 
        "timestamp": "2017-08-15T04:46:57.146000Z"
      }, 
      {
        "empty_slots": 16, 
        "extra": {
          "description": "Via Alfieri / Via Torre Vanga", 
          "status": "online"
        }, 
        "free_bikes": 8, 
        "id": "d04732ad83a30b12a0cd0c14b5e9b738", 
        "latitude": 46.07043395910254, 
        "longitude": 11.121399842327946, 
        "name": "Biblioteca", 
        "timestamp": "2017-08-15T04:46:57.146000Z"
      }, 
      {
        "empty_slots": 10, 
        "extra": {
          "description": "Via Rosmini 50 - Universita`", 
          "status": "online"
        }, 
        "free_bikes": 8, 
        "id": "db1aa2d633fbf6ea97fcecffaae70988", 
        "latitude": 46.06632943181332, 
        "longitude": 11.119020308598351, 
        "name": "Universita`", 
        "timestamp": "2017-08-15T04:46:57.147000Z"
      }, 
      {
        "empty_slots": 14, 
        "extra": {
          "description": "Via S. Croce 78", 
          "status": "online"
        }, 
        "free_bikes": 3, 
        "id": "4bd6926771941ea18a4f8a904298a587", 
        "latitude": 46.06345393738132, 
        "longitude": 11.12375366752849, 
        "name": "Centro Santa Chiara", 
        "timestamp": "2017-08-15T04:46:57.148000Z"
      }, 
      {
        "empty_slots": 10, 
        "extra": {
          "description": "Via Gocciadoro - Staz. S. Chiara", 
          "status": "online"
        }, 
        "free_bikes": 2, 
        "id": "a3ffd38a2f552db04c28a83e997a5f7b", 
        "latitude": 46.054586705531555, 
        "longitude": 11.135349258821861, 
        "name": "Stazione FFSS - Ospedale", 
        "timestamp": "2017-08-15T04:46:57.150000Z"
      }, 
      {
        "empty_slots": 14, 
        "extra": {
          "description": "Via De Gasperi - Lato Trento Frutta", 
          "status": "online"
        }, 
        "free_bikes": 4, 
        "id": "0ebf64ee0a50925c0c2e15ae16657330", 
        "latitude": 46.044433415996814, 
        "longitude": 11.12804971230321, 
        "name": "Azienda Sanitaria", 
        "timestamp": "2017-08-15T04:46:57.150000Z"
      }, 
      {
        "empty_slots": 5, 
        "extra": {
          "description": "Via Lidorno / Aeroporto Caproni", 
          "status": "online"
        }, 
        "free_bikes": 3, 
        "id": "a75be3aec857f1a5f2014a0b5083981a", 
        "latitude": 46.01983619754026, 
        "longitude": 11.127080654939277, 
        "name": "Aeroporto", 
        "timestamp": "2017-08-15T04:46:57.152000Z"
      }, 
      {
        "empty_slots": 8, 
        "extra": {
          "description": "Via Lidorno / Park Trento Sud", 
          "status": "online"
        }, 
        "free_bikes": 4, 
        "id": "ed44c2e872c44476d7dcf3f431470d9a", 
        "latitude": 46.03316279422745, 
        "longitude": 11.126252122229062, 
        "name": "Lidorno", 
        "timestamp": "2017-08-15T04:46:57.151000Z"
      }, 
      {
        "empty_slots": 8, 
        "extra": {
          "description": "Corso del Lavoro e della Scienza", 
          "status": "online"
        }, 
        "free_bikes": 4, 
        "id": "e9076774ff56c47c56176c9f0e1dad54", 
        "latitude": 46.06137765005302, 
        "longitude": 11.116027144580812, 
        "name": "Muse", 
        "timestamp": "2017-08-15T04:46:57.153000Z"
      }, 
      {
        "empty_slots": 4, 
        "extra": {
          "description": "via Madruzzo / via Rosmini", 
          "status": "online"
        }, 
        "free_bikes": 6, 
        "id": "34cffd58626100057673cd2b5eb20253", 
        "latitude": 46.063653753791996, 
        "longitude": 11.119203004368615, 
        "name": "Cimitero", 
        "timestamp": "2017-08-15T04:46:57.160000Z"
      }, 
      {
        "empty_slots": 4, 
        "extra": {
          "description": "Via Bezzi / Via Vittorio Veneto", 
          "status": "online"
        }, 
        "free_bikes": 5, 
        "id": "e829128a0ce7d4b39a172e1d8beb3790", 
        "latitude": 46.058020904033015, 
        "longitude": 11.119315767528406, 
        "name": "Bezzi", 
        "timestamp": "2017-08-15T04:46:57.154000Z"
      }, 
      {
        "empty_slots": 9, 
        "extra": {
          "description": "Via IV Novembre / Piscina", 
          "status": "online"
        }, 
        "free_bikes": 2, 
        "id": "a7c022c401cf38a64c459f53a4f831ed", 
        "latitude": 46.10407094472173, 
        "longitude": 11.112932473016372, 
        "name": "Gardolo", 
        "timestamp": "2017-08-15T04:46:57.155000Z"
      }, 
      {
        "empty_slots": 18, 
        "extra": {
          "description": "Via Pranzelores / Via Giuseppe Gilli", 
          "status": "online"
        }, 
        "free_bikes": 6, 
        "id": "00d841f5a7a286ba0717de688b6994a2", 
        "latitude": 46.09010372321067, 
        "longitude": 11.118583717279193, 
        "name": "Top Center", 
        "timestamp": "2017-08-15T04:46:57.137000Z"
      }, 
      {
        "empty_slots": 11, 
        "extra": {
          "description": "piazza Dante / via Vannetti", 
          "status": "online"
        }, 
        "free_bikes": 3, 
        "id": "0b05bb893eb6aa4ebc6d49b0f07feb0b", 
        "latitude": 46.072996732945235, 
        "longitude": 11.121911281089751, 
        "name": "Vannetti", 
        "timestamp": "2017-08-15T04:46:57.157000Z"
      }
    ]
  }
}