{
  "network": {
    "company": [
      "The National Transport Authority"
    ], 
    "href": "/v2/networks/galway", 
    "id": "galway", 
    "location": {
      "city": "Galway", 
      "country": "IE", 
      "latitude": 53.2783491544, 
      "longitude": -9.05069143207
    }, 
    "name": "Coca-Cola Zero\u00ae Bikes", 
    "stations": [
      {
        "empty_slots": 13, 
        "extra": {
          "slots": 25, 
          "uid": 4009
        }, 
        "free_bikes": 8, 
        "id": "f1e5275b9f353119cc51553fea88aa75", 
        "latitude": 53.275, 
        "longitude": -9.05, 
        "name": "Brown Doorway", 
        "timestamp": "2017-08-15T04:48:41.264000Z"
      }, 
      {
        "empty_slots": 7, 
        "extra": {
          "slots": 21, 
          "uid": 4002
        }, 
        "free_bikes": 9, 
        "id": "5ba74d5811c5e7a3b225aaaa504cf7a5", 
        "latitude": 53.278349154427, 
        "longitude": -9.0506914320733, 
        "name": "Headford Road", 
        "timestamp": "2017-08-15T04:48:41.247000Z"
      }, 
      {
        "empty_slots": 14, 
        "extra": {
          "slots": 20, 
          "uid": 4003
        }, 
        "free_bikes": 6, 
        "id": "92c8a9b5b8c839d7f600cce50f34cce8", 
        "latitude": 53.275835, 
        "longitude": -9.057245, 
        "name": "Cathedral", 
        "timestamp": "2017-08-15T04:48:41.259000Z"
      }, 
      {
        "empty_slots": 0, 
        "extra": {
          "slots": 20, 
          "uid": 4005
        }, 
        "free_bikes": 0, 
        "id": "6cbf806730654e3ab4592cfb7cf239a5", 
        "latitude": 53.276377670712, 
        "longitude": -9.0530796289812, 
        "name": "Wood Quay", 
        "timestamp": "2017-08-15T04:48:41.260000Z"
      }, 
      {
        "empty_slots": 8, 
        "extra": {
          "slots": 14, 
          "uid": 4006
        }, 
        "free_bikes": 5, 
        "id": "0c67b87480e6322ae553e1ff0541a7da", 
        "latitude": 53.276, 
        "longitude": -9.048, 
        "name": "County Hall", 
        "timestamp": "2017-08-15T04:48:41.261000Z"
      }, 
      {
        "empty_slots": 12, 
        "extra": {
          "slots": 18, 
          "uid": 4007
        }, 
        "free_bikes": 4, 
        "id": "8fe79368da18ecff866f11b6400480bd", 
        "latitude": 53.276, 
        "longitude": -9.043, 
        "name": "Galway City Hall", 
        "timestamp": "2017-08-15T04:48:41.262000Z"
      }, 
      {
        "empty_slots": 6, 
        "extra": {
          "slots": 16, 
          "uid": 4008
        }, 
        "free_bikes": 10, 
        "id": "67ccf9cb29bf83dcb3741b6d6a39c07e", 
        "latitude": 53.274235, 
        "longitude": -9.054032, 
        "name": "Newtownsmith", 
        "timestamp": "2017-08-15T04:48:41.263000Z"
      }, 
      {
        "empty_slots": 7, 
        "extra": {
          "slots": 10, 
          "uid": 4012
        }, 
        "free_bikes": 2, 
        "id": "996017483df57e18860a195fda286f66", 
        "latitude": 53.27204, 
        "longitude": -9.054343, 
        "name": "Mainguard Street", 
        "timestamp": "2017-08-15T04:48:41.265000Z"
      }, 
      {
        "empty_slots": 10, 
        "extra": {
          "slots": 20, 
          "uid": 4015
        }, 
        "free_bikes": 10, 
        "id": "c9108038105aec95a8bfb7aab94b9aaf", 
        "latitude": 53.272138, 
        "longitude": -9.050262, 
        "name": "Merchants Gate", 
        "timestamp": "2017-08-15T04:48:41.266000Z"
      }, 
      {
        "empty_slots": 12, 
        "extra": {
          "slots": 17, 
          "uid": 4016
        }, 
        "free_bikes": 1, 
        "id": "f6be041e19a63c8a16b8b3dcb4e39dbd", 
        "latitude": 53.274, 
        "longitude": -9.045, 
        "name": "Fairgreen", 
        "timestamp": "2017-08-15T04:48:41.267000Z"
      }, 
      {
        "empty_slots": 7, 
        "extra": {
          "slots": 20, 
          "uid": 4017
        }, 
        "free_bikes": 6, 
        "id": "0967429813054864874f2402de9754ed", 
        "latitude": 53.269278, 
        "longitude": -9.057244, 
        "name": "Claddagh Basin", 
        "timestamp": "2017-08-15T04:48:41.268000Z"
      }, 
      {
        "empty_slots": 3, 
        "extra": {
          "slots": 20, 
          "uid": 4019
        }, 
        "free_bikes": 12, 
        "id": "64e6adc248de3b38dd0e83d6bc302a25", 
        "latitude": 53.270334, 
        "longitude": -9.052764, 
        "name": "New Dock Street", 
        "timestamp": "2017-08-15T04:48:41.269000Z"
      }, 
      {
        "empty_slots": 7, 
        "extra": {
          "slots": 20, 
          "uid": 4020
        }, 
        "free_bikes": 7, 
        "id": "310672130c93e31ff3c9066f71e00fa7", 
        "latitude": 53.274, 
        "longitude": -9.057, 
        "name": "Gaol Road", 
        "timestamp": "2017-08-15T04:48:41.271000Z"
      }, 
      {
        "empty_slots": 3, 
        "extra": {
          "slots": 20, 
          "uid": 4021
        }, 
        "free_bikes": 13, 
        "id": "c69bc13f1c755d60e70a096b7bae4a89", 
        "latitude": 53.26758, 
        "longitude": -9.058958, 
        "name": "Father Burke Road", 
        "timestamp": "2017-08-15T04:48:41.273000Z"
      }, 
      {
        "empty_slots": 0, 
        "extra": {
          "slots": 10, 
          "uid": 4022
        }, 
        "free_bikes": 0, 
        "id": "7b56f9af1bcb0b60c3f2c911d91bd475", 
        "latitude": 53.274255, 
        "longitude": -9.048138, 
        "name": "Eyre Square South", 
        "timestamp": "2017-08-15T04:48:41.274000Z"
      }, 
      {
        "empty_slots": 22, 
        "extra": {
          "slots": 30, 
          "uid": 4027
        }, 
        "free_bikes": 8, 
        "id": "f3961e8d09e12e1cf9c191deaacddcd9", 
        "latitude": 53.281832, 
        "longitude": -9.047589, 
        "name": "Bodkin", 
        "timestamp": "2017-08-15T04:48:41.277000Z"
      }, 
      {
        "empty_slots": 29, 
        "extra": {
          "slots": 40, 
          "uid": 4029
        }, 
        "free_bikes": 11, 
        "id": "e25180f322987e66690740b1fb46fe0c", 
        "latitude": 53.278353, 
        "longitude": -9.017439, 
        "name": "Glenina", 
        "timestamp": "2017-08-15T04:48:41.279000Z"
      }, 
      {
        "empty_slots": 0, 
        "extra": {
          "slots": 40, 
          "uid": 4031
        }, 
        "free_bikes": 0, 
        "id": "8b4117dda5980e1df03b50ca028b7293", 
        "latitude": 53.288501, 
        "longitude": -9.069596, 
        "name": "Park & Ride NUIG", 
        "timestamp": "2017-08-15T04:48:41.280000Z"
      }, 
      {
        "empty_slots": 39, 
        "extra": {
          "slots": 40, 
          "uid": 4026
        }, 
        "free_bikes": 1, 
        "id": "06de826e92cbfe0203d01a5f753e3082", 
        "latitude": 53.281582, 
        "longitude": -9.063993, 
        "name": "Kingfisher, NUIG", 
        "timestamp": "2017-08-15T04:48:41.275000Z"
      }
    ]
  }
}