{
  "network": {
    "company": [
      "Comunicare S.r.l."
    ], 
    "href": "/v2/networks/gimme-bike", 
    "id": "gimme-bike", 
    "location": {
      "city": "Varese", 
      "country": "IT", 
      "latitude": 45.8183902, 
      "longitude": 8.823913
    }, 
    "name": "Gimme Bike", 
    "stations": [
      {
        "empty_slots": 3, 
        "extra": {
          "description": "Via Monte Generoso 71", 
          "status": "online"
        }, 
        "free_bikes": 1, 
        "id": "d4ba887c909d33bf94ea1690a3443bcf", 
        "latitude": 45.798648249128746, 
        "longitude": 8.855109214782715, 
        "name": "Campus Universitario", 
        "timestamp": "2017-08-15T04:47:02.525000Z"
      }, 
      {
        "empty_slots": 0, 
        "extra": {
          "description": "Piazza Liberta`", 
          "status": "online"
        }, 
        "free_bikes": 8, 
        "id": "58cab81cec9128e05c2a25414a1850c8", 
        "latitude": 45.81782354436569, 
        "longitude": 8.814167976379395, 
        "name": "Casbeno", 
        "timestamp": "2017-08-15T04:47:02.526000Z"
      }, 
      {
        "empty_slots": 2, 
        "extra": {
          "description": "Viale Belforte 22", 
          "status": "online"
        }, 
        "free_bikes": 2, 
        "id": "d490a7bf915c6de97a5c11e8907c1c36", 
        "latitude": 45.8205799, 
        "longitude": 8.8400961, 
        "name": "Sede Ter. Regione Lombardia", 
        "timestamp": "2017-08-15T04:47:02.531000Z"
      }, 
      {
        "empty_slots": 3, 
        "extra": {
          "description": "Via Luigi Sacco", 
          "status": "online"
        }, 
        "free_bikes": 1, 
        "id": "b00ee2c06e78ce7d65f4fa95c60f9077", 
        "latitude": 45.818788307935826, 
        "longitude": 8.823615887102505, 
        "name": "Biblioteca Comunale", 
        "timestamp": "2017-08-15T04:47:02.533000Z"
      }, 
      {
        "empty_slots": 3, 
        "extra": {
          "description": "Via Daverio 10", 
          "status": "online"
        }, 
        "free_bikes": 2, 
        "id": "bdb9639206e2ad3f9fc3a3294106d0c1", 
        "latitude": 45.815490966933716, 
        "longitude": 8.811357044705233, 
        "name": "Stazione FNM Casbeno", 
        "timestamp": "2017-08-15T04:47:02.534000Z"
      }, 
      {
        "empty_slots": 1, 
        "extra": {
          "description": "Largo Bersaglieri", 
          "status": "online"
        }, 
        "free_bikes": 3, 
        "id": "1fa4c7f790b363a3c328781930b4bce8", 
        "latitude": 45.82096979324246, 
        "longitude": 8.828446996295156, 
        "name": "Tribunale", 
        "timestamp": "2017-08-15T04:47:02.535000Z"
      }, 
      {
        "empty_slots": 3, 
        "extra": {
          "description": "Via Daniele Manin", 
          "status": "online"
        }, 
        "free_bikes": 1, 
        "id": "ff9c3902daf430178b39ddc902518b13", 
        "latitude": 45.83547978505637, 
        "longitude": 8.802887638345283, 
        "name": "Palazzetto dello Sport", 
        "timestamp": "2017-08-15T04:47:02.536000Z"
      }, 
      {
        "empty_slots": 3, 
        "extra": {
          "description": "Via Gioacchino Rossini", 
          "status": "online"
        }, 
        "free_bikes": 5, 
        "id": "480519dd9e555a55b72a5413580de602", 
        "latitude": 45.819125267023395, 
        "longitude": 8.82756066176296, 
        "name": "Piazza Giovine Italia", 
        "timestamp": "2017-08-15T04:47:02.537000Z"
      }, 
      {
        "empty_slots": 0, 
        "extra": {
          "description": "Piazzale Biroldi", 
          "status": "offline"
        }, 
        "free_bikes": 0, 
        "id": "a6e2fb6cb2c542d884a18c484cfee26a", 
        "latitude": 45.81531002580219, 
        "longitude": 8.833869868508941, 
        "name": "Ospedale F. del Ponte", 
        "timestamp": "2017-08-15T04:47:02.540000Z"
      }, 
      {
        "empty_slots": 0, 
        "extra": {
          "description": "Piazzale Bulferetti", 
          "status": "offline"
        }, 
        "free_bikes": 0, 
        "id": "4787b742a125f38951d0464d8e8442e1", 
        "latitude": 45.79843921279947, 
        "longitude": 8.846511082733969, 
        "name": "Bizzozero (asl)", 
        "timestamp": "2017-08-15T04:47:02.523000Z"
      }, 
      {
        "empty_slots": 8, 
        "extra": {
          "description": "Piazza Trieste", 
          "status": "online"
        }, 
        "free_bikes": 1, 
        "id": "678baf91c0f39b93952711f850dae9ad", 
        "latitude": 45.81664913020863, 
        "longitude": 8.8323774933815, 
        "name": "Stazione FF.SS.", 
        "timestamp": "2017-08-15T04:47:02.512000Z"
      }, 
      {
        "empty_slots": 3, 
        "extra": {
          "description": "Piazzale Trento", 
          "status": "online"
        }, 
        "free_bikes": 2, 
        "id": "6a8fd5eb54180bb543d6663ebccd8eaa", 
        "latitude": 45.81866328550781, 
        "longitude": 8.833694458007812, 
        "name": "Stazione FNM", 
        "timestamp": "2017-08-15T04:47:02.520000Z"
      }, 
      {
        "empty_slots": 7, 
        "extra": {
          "description": "Piazza Repubblica", 
          "status": "online"
        }, 
        "free_bikes": 3, 
        "id": "8d405d114388dc4b444a6bee2390c275", 
        "latitude": 45.81520331688079, 
        "longitude": 8.82778286933899, 
        "name": "Teatro", 
        "timestamp": "2017-08-15T04:47:02.522000Z"
      }, 
      {
        "empty_slots": 7, 
        "extra": {
          "description": "Viale Borri 57", 
          "status": "online"
        }, 
        "free_bikes": 1, 
        "id": "63c126334c15fc2f7d78b703edd1f71f", 
        "latitude": 45.808161669019555, 
        "longitude": 8.837296419014365, 
        "name": "Ospedale Di Circolo", 
        "timestamp": "2017-08-15T04:47:02.524000Z"
      }
    ]
  }
}