{
  "network": {
    "company": [
      "Trek Bicycle Corporation", 
      "Humana", 
      "Crispin Porter + Bogusky"
    ], 
    "href": "/v2/networks/greenville", 
    "id": "greenville", 
    "location": {
      "city": "Greenville, SC", 
      "country": "US", 
      "latitude": 34.85261759999999, 
      "longitude": -82.3940104
    }, 
    "name": "Greenville B-cycle", 
    "stations": [
      {
        "empty_slots": 4, 
        "extra": {
          "address": "11 College St., Greenville, SC 29601"
        }, 
        "free_bikes": 5, 
        "id": "0a00d5faff04f8c2ce6e9ce5bbffa9ca", 
        "latitude": 34.85399, 
        "longitude": -82.39797, 
        "name": "System will open in the Spring 2013!", 
        "timestamp": "2017-07-13T13:43:03.289000Z"
      }, 
      {
        "empty_slots": 6, 
        "extra": {
          "address": "206 S. Main St., Greenville, SC 29601"
        }, 
        "free_bikes": 1, 
        "id": "b26c717cb89f04d7680511d72c403053", 
        "latitude": 34.84841, 
        "longitude": -82.40027, 
        "name": "System will open in the Spring 2013!", 
        "timestamp": "2017-07-13T13:43:03.292000Z"
      }, 
      {
        "empty_slots": 5, 
        "extra": {
          "address": "301 University Ridge, Greenville, SC 29601"
        }, 
        "free_bikes": 4, 
        "id": "b8ef0fa4597cd0f92b45a6a3a0169d4e", 
        "latitude": 34.84133, 
        "longitude": -82.40368, 
        "name": "System will open in the Spring 2013!", 
        "timestamp": "2017-07-13T13:43:03.294000Z"
      }, 
      {
        "empty_slots": 3, 
        "extra": {
          "address": "100 W. McBee Ave., Greenville, SC 29601"
        }, 
        "free_bikes": 5, 
        "id": "cd4733d73a2acfd1ba1399d4bdd72341", 
        "latitude": 34.85028, 
        "longitude": -82.40107, 
        "name": "System will open in the Spring 2013!", 
        "timestamp": "2017-07-13T13:43:03.293000Z"
      }
    ]
  }
}