{
  "network": {
    "company": [
      "The National Transport Authority"
    ], 
    "href": "/v2/networks/limerick", 
    "id": "limerick", 
    "location": {
      "city": "Limerick", 
      "country": "IE", 
      "latitude": 52.668746, 
      "longitude": -8.627809
    }, 
    "name": "Coca-Cola Zero\u00ae Bikes", 
    "stations": [
      {
        "empty_slots": 12, 
        "extra": {
          "slots": 21, 
          "uid": 3003
        }, 
        "free_bikes": 9, 
        "id": "377c40997d803f02d7debe51bf62d4ab", 
        "latitude": 52.667706, 
        "longitude": -8.624409, 
        "name": "Saint Mary's Cathedral", 
        "timestamp": "2017-08-15T04:49:11.943000Z"
      }, 
      {
        "empty_slots": 13, 
        "extra": {
          "slots": 20, 
          "uid": 3004
        }, 
        "free_bikes": 7, 
        "id": "218c53fb6024cd2db3d63da45f50a802", 
        "latitude": 52.668627, 
        "longitude": -8.620756, 
        "name": "Island Road Junction", 
        "timestamp": "2017-08-15T04:49:11.944000Z"
      }, 
      {
        "empty_slots": 2, 
        "extra": {
          "slots": 10, 
          "uid": 3011
        }, 
        "free_bikes": 6, 
        "id": "6431c0c8c0ecc503b013a5873e7c7d29", 
        "latitude": 52.662964, 
        "longitude": -8.61797, 
        "name": "Saint John's Cathedral", 
        "timestamp": "2017-08-15T04:49:11.962000Z"
      }, 
      {
        "empty_slots": 7, 
        "extra": {
          "slots": 18, 
          "uid": 3016
        }, 
        "free_bikes": 9, 
        "id": "5fbcd3ab2c2910868d1c2c471bb17b78", 
        "latitude": 52.660052, 
        "longitude": -8.627593, 
        "name": "Baker Place", 
        "timestamp": "2017-08-15T04:49:11.975000Z"
      }, 
      {
        "empty_slots": 6, 
        "extra": {
          "slots": 11, 
          "uid": 3001
        }, 
        "free_bikes": 5, 
        "id": "81cd2f7eb1e66820021e319b59196e52", 
        "latitude": 52.668746, 
        "longitude": -8.627809, 
        "name": "Clancy's Strand", 
        "timestamp": "2017-08-15T04:49:11.924000Z"
      }, 
      {
        "empty_slots": 0, 
        "extra": {
          "slots": 20, 
          "uid": 3002
        }, 
        "free_bikes": 0, 
        "id": "1ee5b6ee98d8d693e5931c03f04d53f4", 
        "latitude": 52.669927, 
        "longitude": -8.624656, 
        "name": "King John's Castle", 
        "timestamp": "2017-08-15T04:49:11.933000Z"
      }, 
      {
        "empty_slots": 14, 
        "extra": {
          "slots": 28, 
          "uid": 3005
        }, 
        "free_bikes": 12, 
        "id": "c109843fd5f9909dc8b37de0b5b87b77", 
        "latitude": 52.6664, 
        "longitude": -8.62267, 
        "name": "The Granary", 
        "timestamp": "2017-08-15T04:49:11.945000Z"
      }, 
      {
        "empty_slots": 9, 
        "extra": {
          "slots": 20, 
          "uid": 3006
        }, 
        "free_bikes": 11, 
        "id": "2b3252ca0c83030bfd39be9e2269eee5", 
        "latitude": 52.66642, 
        "longitude": -8.618478, 
        "name": "Abbey Bridge", 
        "timestamp": "2017-08-15T04:49:11.946000Z"
      }, 
      {
        "empty_slots": 8, 
        "extra": {
          "slots": 16, 
          "uid": 3007
        }, 
        "free_bikes": 7, 
        "id": "328ee2232f91cc293ab6b0eb18cb3ef5", 
        "latitude": 52.665794, 
        "longitude": -8.631321, 
        "name": "O'Callaghan Strand", 
        "timestamp": "2017-08-15T04:49:11.947000Z"
      }, 
      {
        "empty_slots": 9, 
        "extra": {
          "slots": 19, 
          "uid": 3008
        }, 
        "free_bikes": 9, 
        "id": "1d5ccb81d4e8b88864de8a0b156ee610", 
        "latitude": 52.663725, 
        "longitude": -8.628751, 
        "name": "Bedford Row", 
        "timestamp": "2017-08-15T04:49:11.955000Z"
      }, 
      {
        "empty_slots": 7, 
        "extra": {
          "slots": 25, 
          "uid": 3009
        }, 
        "free_bikes": 11, 
        "id": "5f497505a58dd3cdd2b4d4bcaef88412", 
        "latitude": 52.664822, 
        "longitude": -8.626348, 
        "name": "Arthur's Quay", 
        "timestamp": "2017-08-15T04:49:11.958000Z"
      }, 
      {
        "empty_slots": 2, 
        "extra": {
          "slots": 20, 
          "uid": 3010
        }, 
        "free_bikes": 9, 
        "id": "9adfeafa01a3c73fc48786d2b22924da", 
        "latitude": 52.663496, 
        "longitude": -8.62168, 
        "name": "The Milk Market", 
        "timestamp": "2017-08-15T04:49:11.960000Z"
      }, 
      {
        "empty_slots": 9, 
        "extra": {
          "slots": 20, 
          "uid": 3012
        }, 
        "free_bikes": 10, 
        "id": "ec85e83c1321452718a220a2e2bf820c", 
        "latitude": 52.660023, 
        "longitude": -8.62021, 
        "name": "Newtown Mahon", 
        "timestamp": "2017-08-15T04:49:11.964000Z"
      }, 
      {
        "empty_slots": 4, 
        "extra": {
          "slots": 12, 
          "uid": 3013
        }, 
        "free_bikes": 8, 
        "id": "e9c933893f22688e8993913672463335", 
        "latitude": 52.662172, 
        "longitude": -8.631993, 
        "name": "Bishop's Quay", 
        "timestamp": "2017-08-15T04:49:11.965000Z"
      }, 
      {
        "empty_slots": 5, 
        "extra": {
          "slots": 15, 
          "uid": 3014
        }, 
        "free_bikes": 7, 
        "id": "4c423642360bd02ed80ca6be048ee920", 
        "latitude": 52.661273, 
        "longitude": -8.629543, 
        "name": "O'Connell Street", 
        "timestamp": "2017-08-15T04:49:11.967000Z"
      }, 
      {
        "empty_slots": 10, 
        "extra": {
          "slots": 20, 
          "uid": 3015
        }, 
        "free_bikes": 8, 
        "id": "476df60042a1dad64e07f207cea9783a", 
        "latitude": 52.661081, 
        "longitude": -8.625007, 
        "name": "Roches Street", 
        "timestamp": "2017-08-15T04:49:11.968000Z"
      }, 
      {
        "empty_slots": 18, 
        "extra": {
          "slots": 26, 
          "uid": 3017
        }, 
        "free_bikes": 6, 
        "id": "23693f03cb7b096660505b2b5c39496f", 
        "latitude": 52.658635, 
        "longitude": -8.632447, 
        "name": "Newenham St.", 
        "timestamp": "2017-08-15T04:49:11.976000Z"
      }, 
      {
        "empty_slots": 11, 
        "extra": {
          "slots": 19, 
          "uid": 3018
        }, 
        "free_bikes": 8, 
        "id": "5218178ff1c78c286078a62e3486843b", 
        "latitude": 52.658147, 
        "longitude": -8.629443, 
        "name": "Pery Square", 
        "timestamp": "2017-08-15T04:49:11.976000Z"
      }, 
      {
        "empty_slots": 0, 
        "extra": {
          "slots": 20, 
          "uid": 3019
        }, 
        "free_bikes": 0, 
        "id": "01d4969148e063ee857a3fa3adca8fe7", 
        "latitude": 52.659188, 
        "longitude": -8.62527, 
        "name": "Colbert Station", 
        "timestamp": "2017-08-15T04:49:11.977000Z"
      }, 
      {
        "empty_slots": 5, 
        "extra": {
          "slots": 17, 
          "uid": 3020
        }, 
        "free_bikes": 9, 
        "id": "c7936341709c9736d3e4ea9022d15d24", 
        "latitude": 52.655574, 
        "longitude": -8.635766, 
        "name": "Mount Saint Alphonsus", 
        "timestamp": "2017-08-15T04:49:11.982000Z"
      }, 
      {
        "empty_slots": 13, 
        "extra": {
          "slots": 20, 
          "uid": 3021
        }, 
        "free_bikes": 6, 
        "id": "15acd6af442639a8ce449e6c2aad4aab", 
        "latitude": 52.65511, 
        "longitude": -8.634783, 
        "name": "O'Connell Avenue", 
        "timestamp": "2017-08-15T04:49:11.984000Z"
      }, 
      {
        "empty_slots": 2, 
        "extra": {
          "slots": 20, 
          "uid": 3022
        }, 
        "free_bikes": 16, 
        "id": "e0f6a8af315d45572a12ba33fd3ab328", 
        "latitude": 52.65317, 
        "longitude": -8.638653, 
        "name": "Mary Immaculate College", 
        "timestamp": "2017-08-15T04:49:11.986000Z"
      }, 
      {
        "empty_slots": 1, 
        "extra": {
          "slots": 20, 
          "uid": 3023
        }, 
        "free_bikes": 11, 
        "id": "0766f7cdc6b8873b5343383decb13985", 
        "latitude": 52.652563, 
        "longitude": -8.635751, 
        "name": "Mount Saint Vincent", 
        "timestamp": "2017-08-15T04:49:11.989000Z"
      }
    ]
  }
}