{
  "network": {
    "company": [
      "Comunicare S.r.l."
    ], 
    "href": "/v2/networks/meglio-in-bici", 
    "id": "meglio-in-bici", 
    "location": {
      "city": "Cernusco sul Naviglio - Pioltello - Carugate", 
      "country": "IT", 
      "latitude": 45.520541, 
      "longitude": 9.341984
    }, 
    "name": "Meglio in Bici", 
    "stations": [
      {
        "empty_slots": 7, 
        "extra": {
          "status": "online"
        }, 
        "free_bikes": 12, 
        "id": "599644c9973576759d394cdf76c57b11", 
        "latitude": 45.519338394063496, 
        "longitude": 9.330718517303467, 
        "name": "Viale Assunta - Cernusco", 
        "timestamp": "2017-08-15T04:49:20.216000Z"
      }, 
      {
        "empty_slots": 4, 
        "extra": {
          "status": "online"
        }, 
        "free_bikes": 6, 
        "id": "5fe44e3c0ab9631bb8454ea327865ae6", 
        "latitude": 45.52024046971439, 
        "longitude": 9.345524311065674, 
        "name": "Villa Fiorita - Cernusco", 
        "timestamp": "2017-08-15T04:49:20.219000Z"
      }, 
      {
        "empty_slots": 10, 
        "extra": {
          "status": "online"
        }, 
        "free_bikes": 0, 
        "id": "da48bad970a9843e6b5b0662390a5e79", 
        "latitude": 45.51213630484634, 
        "longitude": 9.33812141418457, 
        "name": "Zona Industriale - Cernusco", 
        "timestamp": "2017-08-15T04:49:20.220000Z"
      }, 
      {
        "empty_slots": 0, 
        "extra": {
          "status": "offline"
        }, 
        "free_bikes": 0, 
        "id": "538d88383fe9dcfdce758faba34e1db0", 
        "latitude": 45.54903914731302, 
        "longitude": 9.338593482971191, 
        "name": "Municipio - Carugate", 
        "timestamp": "2017-08-15T04:49:20.221000Z"
      }, 
      {
        "empty_slots": 0, 
        "extra": {
          "status": "offline"
        }, 
        "free_bikes": 0, 
        "id": "217e76d517195548fe731bd1f39f4645", 
        "latitude": 45.546567188229886, 
        "longitude": 9.329527616500854, 
        "name": "Carosello - Carugate", 
        "timestamp": "2017-08-15T04:49:20.222000Z"
      }, 
      {
        "empty_slots": 0, 
        "extra": {
          "status": "offline"
        }, 
        "free_bikes": 0, 
        "id": "1e57381b1ad7ab23d383beaf93e9a98d", 
        "latitude": 45.55033143523324, 
        "longitude": 9.3313729763031, 
        "name": "Ikea - Carugate", 
        "timestamp": "2017-08-15T04:49:20.223000Z"
      }, 
      {
        "empty_slots": 3, 
        "extra": {
          "status": "online"
        }, 
        "free_bikes": 7, 
        "id": "d1d9297386dbfa98ab870f60a07f135d", 
        "latitude": 45.49766919916826, 
        "longitude": 9.327553510665894, 
        "name": "Municipio - Pioltello", 
        "timestamp": "2017-08-15T04:49:20.224000Z"
      }, 
      {
        "empty_slots": 3, 
        "extra": {
          "status": "online"
        }, 
        "free_bikes": 7, 
        "id": "ef129098140da7a015b20b83b7db010a", 
        "latitude": 45.48616203823974, 
        "longitude": 9.325826168060303, 
        "name": "Stazione FFSS - Pioltello", 
        "timestamp": "2017-08-15T04:49:20.225000Z"
      }, 
      {
        "empty_slots": 4, 
        "extra": {
          "description": "Via Roma/Piazza 25 Aprile - Pioltello", 
          "status": "online"
        }, 
        "free_bikes": 2, 
        "id": "0f594d6af8d130e4c07c01766a549fd0", 
        "latitude": 45.501145994306576, 
        "longitude": 9.328050405835029, 
        "name": "25 Aprile - Pioltello", 
        "timestamp": "2017-08-15T04:49:20.226000Z"
      }, 
      {
        "empty_slots": 3, 
        "extra": {
          "description": "Via Giambologna", 
          "status": "online"
        }, 
        "free_bikes": 6, 
        "id": "082b1b2bd2504bb73d0edb555e92785c", 
        "latitude": 45.48551917784917, 
        "longitude": 9.318017160990848, 
        "name": "Esselunga - Pioltello", 
        "timestamp": "2017-08-15T04:49:20.228000Z"
      }
    ]
  }
}