{
  "network": {
    "company": [
      "Mobilicidade Tecnologia LTD", 
      "Municipalidad de Rosario"
    ], 
    "href": "/v2/networks/mibicitubici", 
    "id": "mibicitubici", 
    "location": {
      "city": "Rosario", 
      "country": "AR", 
      "latitude": -32.95, 
      "longitude": -60.65
    }, 
    "name": "Mi bici tu bici", 
    "stations": [
      {
        "empty_slots": 20, 
        "extra": {
          "status": "maintenance/implementation", 
          "uid": "11"
        }, 
        "free_bikes": 0, 
        "id": "4f606eacdbfdb05f5e9b105f906ce92d", 
        "latitude": -32.943842, 
        "longitude": -60.65007, 
        "name": "Plaza San Mart\u00edn", 
        "timestamp": "2017-07-23T11:34:08.582000Z"
      }, 
      {
        "empty_slots": 21, 
        "extra": {
          "status": "maintenance/implementation", 
          "uid": "14"
        }, 
        "free_bikes": 0, 
        "id": "b41bad17dbed46ea28f2971b563b9739", 
        "latitude": -32.949528, 
        "longitude": -60.637714, 
        "name": "Plaza Montenegro", 
        "timestamp": "2017-07-23T11:34:08.585000Z"
      }, 
      {
        "empty_slots": 20, 
        "extra": {
          "status": "maintenance/implementation", 
          "uid": "15"
        }, 
        "free_bikes": 0, 
        "id": "03e65bd4b4457c1ba3e1854e0cc35ecc", 
        "latitude": -32.947039, 
        "longitude": -60.633235, 
        "name": "Plaza 25 de Mayo", 
        "timestamp": "2017-07-23T11:34:08.587000Z"
      }, 
      {
        "empty_slots": 20, 
        "extra": {
          "status": "maintenance/implementation", 
          "uid": "18"
        }, 
        "free_bikes": 0, 
        "id": "1454c467029604f8a7022dd121a63481", 
        "latitude": -32.940916, 
        "longitude": -60.634859, 
        "name": "Parque Espa\u00f1a", 
        "timestamp": "2017-07-23T11:34:08.591000Z"
      }, 
      {
        "empty_slots": 20, 
        "extra": {
          "status": "maintenance/implementation", 
          "uid": "1"
        }, 
        "free_bikes": 0, 
        "id": "1a2d256006022014bcd3fd846e8a6e5d", 
        "latitude": -32.953886, 
        "longitude": -60.656628, 
        "name": "Museo Castagnino", 
        "timestamp": "2017-07-23T11:34:08.566000Z"
      }, 
      {
        "empty_slots": 11, 
        "extra": {
          "status": "maintenance/implementation", 
          "uid": "2"
        }, 
        "free_bikes": 9, 
        "id": "e6983c9da4d542df4a939e4b2c9f2abb", 
        "latitude": -32.95696, 
        "longitude": -60.644427, 
        "name": "Paseo Pellegrini", 
        "timestamp": "2017-07-23T11:34:08.569000Z"
      }, 
      {
        "empty_slots": 13, 
        "extra": {
          "status": "maintenance/implementation", 
          "uid": "3"
        }, 
        "free_bikes": 7, 
        "id": "af90763b7a74dc0f7b523eb1faa92583", 
        "latitude": -32.958351, 
        "longitude": -60.636239, 
        "name": "Plaza L\u00f3pez", 
        "timestamp": "2017-07-23T11:34:08.570000Z"
      }, 
      {
        "empty_slots": 9, 
        "extra": {
          "status": "maintenance/implementation", 
          "uid": "4"
        }, 
        "free_bikes": 11, 
        "id": "5fbceae029c26c9a0881e742eb87d36f", 
        "latitude": -32.959327, 
        "longitude": -60.628885, 
        "name": "Fac. de Ingenier\u00eda", 
        "timestamp": "2017-07-23T11:34:08.574000Z"
      }, 
      {
        "empty_slots": 8, 
        "extra": {
          "status": "maintenance/implementation", 
          "uid": "5"
        }, 
        "free_bikes": 13, 
        "id": "ca9d1e8313719584a375415f8e17b71c", 
        "latitude": -32.965547, 
        "longitude": -60.623939, 
        "name": "Ciudad Univ. I", 
        "timestamp": "2017-07-23T11:34:08.575000Z"
      }, 
      {
        "empty_slots": 21, 
        "extra": {
          "status": "maintenance/implementation", 
          "uid": "7"
        }, 
        "free_bikes": 0, 
        "id": "cf90a0a98553dbcdc4e755343740c359", 
        "latitude": -32.940079, 
        "longitude": -60.670702, 
        "name": "Terminal", 
        "timestamp": "2017-07-23T11:34:08.578000Z"
      }, 
      {
        "empty_slots": 12, 
        "extra": {
          "status": "maintenance/implementation", 
          "uid": "8"
        }, 
        "free_bikes": 9, 
        "id": "37fa98fd51127f63d6927327c4d115b4", 
        "latitude": -32.940056, 
        "longitude": -60.665159, 
        "name": "Fac. Medicina", 
        "timestamp": "2017-07-23T11:34:08.579000Z"
      }, 
      {
        "empty_slots": 12, 
        "extra": {
          "status": "maintenance/implementation", 
          "uid": "9"
        }, 
        "free_bikes": 0, 
        "id": "8217833ce82f58ae587bc8109697e267", 
        "latitude": -32.94526, 
        "longitude": -60.658115, 
        "name": "Pueyrred\u00f3n", 
        "timestamp": "2017-07-23T11:34:08.580000Z"
      }, 
      {
        "empty_slots": 20, 
        "extra": {
          "status": "maintenance/implementation", 
          "uid": "10"
        }, 
        "free_bikes": 0, 
        "id": "156079b969f157e905cf51dd80eec485", 
        "latitude": -32.949595, 
        "longitude": -60.654339, 
        "name": "Fac. Ciencias Econ\u00f3micas", 
        "timestamp": "2017-07-23T11:34:08.581000Z"
      }, 
      {
        "empty_slots": 20, 
        "extra": {
          "status": "maintenance/implementation", 
          "uid": "12"
        }, 
        "free_bikes": 0, 
        "id": "24019ae76b1db381e5905347e23af31c", 
        "latitude": -32.945053, 
        "longitude": -60.644409, 
        "name": "Plaza Pringles", 
        "timestamp": "2017-07-23T11:34:08.583000Z"
      }, 
      {
        "empty_slots": 20, 
        "extra": {
          "status": "maintenance/implementation", 
          "uid": "13"
        }, 
        "free_bikes": 0, 
        "id": "d44bc9c8c3887f62ce057e0adbc66703", 
        "latitude": -32.949294, 
        "longitude": -60.642499, 
        "name": "Plaza Sarmiento", 
        "timestamp": "2017-07-23T11:34:08.584000Z"
      }, 
      {
        "empty_slots": 12, 
        "extra": {
          "status": "maintenance/implementation", 
          "uid": "16"
        }, 
        "free_bikes": 8, 
        "id": "3322bf379c5014a2089cde0df76fa37a", 
        "latitude": -32.936746, 
        "longitude": -60.651647, 
        "name": "Pichincha", 
        "timestamp": "2017-07-23T11:34:08.589000Z"
      }, 
      {
        "empty_slots": 20, 
        "extra": {
          "status": "maintenance/implementation", 
          "uid": "17"
        }, 
        "free_bikes": 0, 
        "id": "19a87efc72a1c989aa23cde504097e3c", 
        "latitude": -32.93667, 
        "longitude": -60.641238, 
        "name": "Distrito Centro", 
        "timestamp": "2017-07-23T11:34:08.590000Z"
      }, 
      {
        "empty_slots": 18, 
        "extra": {
          "status": "maintenance/implementation", 
          "uid": "6"
        }, 
        "free_bikes": 2, 
        "id": "5798ed886530ba2df9f8aaf557f2b8d6", 
        "latitude": -32.966281, 
        "longitude": -60.623568, 
        "name": "Ciudad Univ. II", 
        "timestamp": "2017-07-23T11:34:08.577000Z"
      }
    ]
  }
}