{
  "network": {
    "company": [
      "Comunicare S.r.l."
    ], 
    "href": "/v2/networks/mimuovofe", 
    "id": "mimuovofe", 
    "location": {
      "city": "Ferrara", 
      "country": "IT", 
      "latitude": 44.8350382, 
      "longitude": 11.6240562
    }, 
    "name": "MiMuovoFe", 
    "stations": [
      {
        "empty_slots": 6, 
        "extra": {
          "description": "Via F. Beretta", 
          "status": "offline"
        }, 
        "free_bikes": 2, 
        "id": "ea2bf755a61a7eaa50197a1fec9de9f3", 
        "latitude": 44.838971430991506, 
        "longitude": 11.616553366184235, 
        "name": "2. Poste Centrali", 
        "timestamp": "2017-08-15T04:49:31.268000Z"
      }, 
      {
        "empty_slots": 11, 
        "extra": {
          "description": "Giardini 20-29 maggio 2012 di Viale Cavour", 
          "status": "online"
        }, 
        "free_bikes": 1, 
        "id": "df65b5b40d0b9317c1811514424cd747", 
        "latitude": 44.838990731885104, 
        "longitude": 11.617591381072998, 
        "name": "5. Castello Estense", 
        "timestamp": "2017-08-15T04:49:31.271000Z"
      }, 
      {
        "empty_slots": 0, 
        "extra": {
          "description": "Rampari San Rocco", 
          "status": "offline"
        }, 
        "free_bikes": 0, 
        "id": "a6c8a26de985f1f515623c3362c3bb55", 
        "latitude": 44.83629071859765, 
        "longitude": 11.634155089440924, 
        "name": "6. Polo Chimico Bio Medico", 
        "timestamp": "2017-08-15T04:49:31.272000Z"
      }, 
      {
        "empty_slots": 0, 
        "extra": {
          "description": "Via Quartieri 8", 
          "status": "offline"
        }, 
        "free_bikes": 0, 
        "id": "f75f3c902d4cba43f439574564c1dcb7", 
        "latitude": 44.828367699694695, 
        "longitude": 11.622319952114822, 
        "name": "7. Dipartimento di Architettura", 
        "timestamp": "2017-08-15T04:49:31.272000Z"
      }, 
      {
        "empty_slots": 7, 
        "extra": {
          "description": "Via G. Saragat 1", 
          "status": "online"
        }, 
        "free_bikes": 0, 
        "id": "ccc151407f49e86f3b9724390266e4bd", 
        "latitude": 44.83516289875396, 
        "longitude": 11.598395066131616, 
        "name": "8. Polo Scientifico-Tecnologico", 
        "timestamp": "2017-08-15T04:49:31.273000Z"
      }, 
      {
        "empty_slots": 0, 
        "extra": {
          "description": "Via R. Felisatti 22", 
          "status": "offline"
        }, 
        "free_bikes": 0, 
        "id": "a685e78ce5301b3dc2f98f58165063b7", 
        "latitude": 44.84318144789799, 
        "longitude": 11.604909896850586, 
        "name": "1. Stazione  FF.SS.", 
        "timestamp": "2017-08-15T04:49:31.266000Z"
      }, 
      {
        "empty_slots": 6, 
        "extra": {
          "description": "L.go M. Antonioni", 
          "status": "online"
        }, 
        "free_bikes": 2, 
        "id": "dc9c6ea2e2628e79ae3cca0914cbd557", 
        "latitude": 44.83831207533485, 
        "longitude": 11.622188687324524, 
        "name": "3. Cinema Boldini", 
        "timestamp": "2017-08-15T04:49:31.269000Z"
      }, 
      {
        "empty_slots": 0, 
        "extra": {
          "description": "Via Pergolato", 
          "status": "offline"
        }, 
        "free_bikes": 0, 
        "id": "d567b5c8984506537dfae0fe1ea0df2a", 
        "latitude": 44.832819552908425, 
        "longitude": 11.62677526473999, 
        "name": "4.Rettorato Universita`", 
        "timestamp": "2017-08-15T04:49:31.270000Z"
      }
    ]
  }
}