{
  "network": {
    "company": [
      "Labici Bicicletas P\u00fablicas SL"
    ], 
    "href": "/v2/networks/muybici", 
    "id": "muybici", 
    "location": {
      "city": "Murcia", 
      "country": "ES", 
      "latitude": 37.9922399, 
      "longitude": -1.1306544
    }, 
    "name": "MuyBici", 
    "stations": [
      {
        "empty_slots": 16, 
        "extra": {
          "slots": "16", 
          "uid": "169"
        }, 
        "free_bikes": 0, 
        "id": "dbb274d9f88340a8c2a2ed7ce2a52605", 
        "latitude": 37.977395, 
        "longitude": -1.113494, 
        "name": "Ciudad de la Justicia", 
        "timestamp": "2017-08-15T04:50:11.931000Z"
      }, 
      {
        "empty_slots": 20, 
        "extra": {
          "slots": "20", 
          "uid": "181"
        }, 
        "free_bikes": 0, 
        "id": "081f50673e0986d01a9e7cfb37c144d6", 
        "latitude": 37.988335, 
        "longitude": -1.126516, 
        "name": "Plaza de la Merced 1", 
        "timestamp": "2017-08-15T04:50:11.953000Z"
      }, 
      {
        "empty_slots": 19, 
        "extra": {
          "slots": "20", 
          "uid": "204"
        }, 
        "free_bikes": 1, 
        "id": "650004ee3bb8460fe0797f3c3bf947f1", 
        "latitude": 38.01886, 
        "longitude": -1.166801, 
        "name": "U.M.U. Glorieta Este", 
        "timestamp": "2017-08-15T04:50:11.985000Z"
      }, 
      {
        "empty_slots": 20, 
        "extra": {
          "slots": "20", 
          "uid": "245"
        }, 
        "free_bikes": 0, 
        "id": "71c455fe03d0fd27df1ff3d06d910892", 
        "latitude": 38.014751, 
        "longitude": -1.17285, 
        "name": "U.M.U. Educaci\u00f3n", 
        "timestamp": "2017-08-15T04:50:12.003000Z"
      }, 
      {
        "empty_slots": 19, 
        "extra": {
          "slots": "20", 
          "uid": "165"
        }, 
        "free_bikes": 1, 
        "id": "fd81541a91396793476b133f77e28a78", 
        "latitude": 37.96944, 
        "longitude": -1.130942, 
        "name": "Paseo Florencia 1 ", 
        "timestamp": "2017-08-15T04:50:11.926000Z"
      }, 
      {
        "empty_slots": 20, 
        "extra": {
          "slots": "20", 
          "uid": "166"
        }, 
        "free_bikes": 0, 
        "id": "0e1d97149b662a0c083203bf08cd64fa", 
        "latitude": 37.994401, 
        "longitude": -1.12252, 
        "name": "CD La Flota", 
        "timestamp": "2017-08-15T04:50:11.929000Z"
      }, 
      {
        "empty_slots": 20, 
        "extra": {
          "slots": "20", 
          "uid": "167"
        }, 
        "free_bikes": 0, 
        "id": "b999cce213a4bffffdca06fd73b8ead0", 
        "latitude": 37.97821, 
        "longitude": -1.125146, 
        "name": "Juan Ram\u00f3n Jimenez", 
        "timestamp": "2017-08-15T04:50:11.930000Z"
      }, 
      {
        "empty_slots": 23, 
        "extra": {
          "slots": "24", 
          "uid": "168"
        }, 
        "free_bikes": 1, 
        "id": "37a1a1a4a531564f3c8cf1f1a73bdb3e", 
        "latitude": 37.97498, 
        "longitude": -1.131414, 
        "name": "Estacion RENFE ", 
        "timestamp": "2017-08-15T04:50:11.930000Z"
      }, 
      {
        "empty_slots": 19, 
        "extra": {
          "slots": "20", 
          "uid": "170"
        }, 
        "free_bikes": 1, 
        "id": "aea1daf2fd01dccac3b3a145fb82eb03", 
        "latitude": 37.978059, 
        "longitude": -1.134012, 
        "name": "Cuartel de Artilleria", 
        "timestamp": "2017-08-15T04:50:11.932000Z"
      }, 
      {
        "empty_slots": 19, 
        "extra": {
          "slots": "20", 
          "uid": "171"
        }, 
        "free_bikes": 1, 
        "id": "ecca9e0e603fbb047fff37a28dd35002", 
        "latitude": 37.979698, 
        "longitude": -1.130198, 
        "name": "Jardin de Floridablanca", 
        "timestamp": "2017-08-15T04:50:11.933000Z"
      }, 
      {
        "empty_slots": 20, 
        "extra": {
          "slots": "20", 
          "uid": "172"
        }, 
        "free_bikes": 0, 
        "id": "743da7372af4645cbd134b1b97b5f8cb", 
        "latitude": 37.980336, 
        "longitude": -1.119232, 
        "name": "Avd S.Juan de la Cruz ", 
        "timestamp": "2017-08-15T04:50:11.946000Z"
      }, 
      {
        "empty_slots": 19, 
        "extra": {
          "slots": "20", 
          "uid": "173"
        }, 
        "free_bikes": 1, 
        "id": "bbfa649edda301ba816c2141b3c0378c", 
        "latitude": 37.975764, 
        "longitude": -1.120698, 
        "name": "Avd Pio Baroja", 
        "timestamp": "2017-08-15T04:50:11.946000Z"
      }, 
      {
        "empty_slots": 20, 
        "extra": {
          "slots": "20", 
          "uid": "174"
        }, 
        "free_bikes": 0, 
        "id": "48abeb7cf172f555596872cd2305325b", 
        "latitude": 37.981922, 
        "longitude": -1.121477, 
        "name": "Hospital Reina Sof\u00eda", 
        "timestamp": "2017-08-15T04:50:11.947000Z"
      }, 
      {
        "empty_slots": 20, 
        "extra": {
          "slots": "20", 
          "uid": "175"
        }, 
        "free_bikes": 0, 
        "id": "ad8d621192e0471c7bfd848181f34d12", 
        "latitude": 37.983028, 
        "longitude": -1.130591, 
        "name": "Glorieta de Espa\u00f1a", 
        "timestamp": "2017-08-15T04:50:11.948000Z"
      }, 
      {
        "empty_slots": 20, 
        "extra": {
          "slots": "20", 
          "uid": "177"
        }, 
        "free_bikes": 0, 
        "id": "d0eba42b2dd01f592b6d5016e2547592", 
        "latitude": 37.986093, 
        "longitude": -1.131993, 
        "name": "Santa Isabel", 
        "timestamp": "2017-08-15T04:50:11.949000Z"
      }, 
      {
        "empty_slots": 17, 
        "extra": {
          "slots": "18", 
          "uid": "179"
        }, 
        "free_bikes": 1, 
        "id": "1237f5b47d3b0e993783d299bab8a6f0", 
        "latitude": 37.986376, 
        "longitude": -1.127178, 
        "name": "Plaza de Europa", 
        "timestamp": "2017-08-15T04:50:11.951000Z"
      }, 
      {
        "empty_slots": 20, 
        "extra": {
          "slots": "20", 
          "uid": "180"
        }, 
        "free_bikes": 0, 
        "id": "85ed72c4f7d98893bd8dbad59d906f90", 
        "latitude": 37.987769, 
        "longitude": -1.129766, 
        "name": "Santo Domingo", 
        "timestamp": "2017-08-15T04:50:11.952000Z"
      }, 
      {
        "empty_slots": 19, 
        "extra": {
          "slots": "20", 
          "uid": "182"
        }, 
        "free_bikes": 1, 
        "id": "367ba168d449b602dd65ab9b3a70415c", 
        "latitude": 37.985345, 
        "longitude": -1.123326, 
        "name": "Ronda de Garay", 
        "timestamp": "2017-08-15T04:50:11.955000Z"
      }, 
      {
        "empty_slots": 12, 
        "extra": {
          "slots": "18", 
          "uid": "184"
        }, 
        "free_bikes": 6, 
        "id": "72162a395198f8f6dab80372c2559219", 
        "latitude": 37.986409, 
        "longitude": -1.139457, 
        "name": "Estaci\u00f3n de Autobuses ", 
        "timestamp": "2017-08-15T04:50:11.959000Z"
      }, 
      {
        "empty_slots": 20, 
        "extra": {
          "slots": "20", 
          "uid": "185"
        }, 
        "free_bikes": 0, 
        "id": "c1abf40312f62e8543d0e1c60b693b63", 
        "latitude": 37.990583, 
        "longitude": -1.134232, 
        "name": "Avd de la Libertad", 
        "timestamp": "2017-08-15T04:50:11.960000Z"
      }, 
      {
        "empty_slots": 14, 
        "extra": {
          "slots": "14", 
          "uid": "186"
        }, 
        "free_bikes": 0, 
        "id": "2fb2ae7b3bb3b1663cc0873b7923ac5d", 
        "latitude": 37.991985, 
        "longitude": -1.129554, 
        "name": "Plaza Circular", 
        "timestamp": "2017-08-15T04:50:11.962000Z"
      }, 
      {
        "empty_slots": 20, 
        "extra": {
          "slots": "20", 
          "uid": "187"
        }, 
        "free_bikes": 0, 
        "id": "1368006c161298488345a39943aec23c", 
        "latitude": 37.99428, 
        "longitude": -1.134718, 
        "name": "Calle Auditorium", 
        "timestamp": "2017-08-15T04:50:11.963000Z"
      }, 
      {
        "empty_slots": 20, 
        "extra": {
          "slots": "20", 
          "uid": "188"
        }, 
        "free_bikes": 0, 
        "id": "8dadb7bf2c5f8cf949e25c20d740b97b", 
        "latitude": 37.992622, 
        "longitude": -1.133716, 
        "name": "Hospital la Vega", 
        "timestamp": "2017-08-15T04:50:11.965000Z"
      }, 
      {
        "empty_slots": 19, 
        "extra": {
          "slots": "20", 
          "uid": "189"
        }, 
        "free_bikes": 1, 
        "id": "e833ebf5a4a0807c17398e65232d636b", 
        "latitude": 38.007373, 
        "longitude": -1.12979, 
        "name": "Santiago y Zaraiche", 
        "timestamp": "2017-08-15T04:50:11.967000Z"
      }, 
      {
        "empty_slots": 18, 
        "extra": {
          "slots": "18", 
          "uid": "190"
        }, 
        "free_bikes": 0, 
        "id": "ceb4504fe1b0d18840488728386ec9b1", 
        "latitude": 37.997141, 
        "longitude": -1.131281, 
        "name": "Avd Abenarabi", 
        "timestamp": "2017-08-15T04:50:11.968000Z"
      }, 
      {
        "empty_slots": 22, 
        "extra": {
          "slots": "24", 
          "uid": "191"
        }, 
        "free_bikes": 2, 
        "id": "e2e0fcf6e13e892880899b4975f32602", 
        "latitude": 37.993127, 
        "longitude": -1.141803, 
        "name": "Pza de Castilla", 
        "timestamp": "2017-08-15T04:50:11.970000Z"
      }, 
      {
        "empty_slots": 22, 
        "extra": {
          "slots": "24", 
          "uid": "192"
        }, 
        "free_bikes": 2, 
        "id": "ac54a4be144a1bc9e98a3ca7dc5b43c5", 
        "latitude": 37.998145, 
        "longitude": -1.147224, 
        "name": "Avd Duques de Lugo", 
        "timestamp": "2017-08-15T04:50:11.971000Z"
      }, 
      {
        "empty_slots": 19, 
        "extra": {
          "slots": "20", 
          "uid": "193"
        }, 
        "free_bikes": 1, 
        "id": "26cb2138081b3f07fee016f7aaaeb032", 
        "latitude": 37.99429, 
        "longitude": -1.132123, 
        "name": "Avd Juan Carlos I", 
        "timestamp": "2017-08-15T04:50:11.974000Z"
      }, 
      {
        "empty_slots": 19, 
        "extra": {
          "slots": "20", 
          "uid": "196"
        }, 
        "free_bikes": 1, 
        "id": "f35df9e45e4eb5bd69421623c1a7de25", 
        "latitude": 37.998668, 
        "longitude": -1.137156, 
        "name": "Biblioteca Regional", 
        "timestamp": "2017-08-15T04:50:11.975000Z"
      }, 
      {
        "empty_slots": 19, 
        "extra": {
          "slots": "20", 
          "uid": "197"
        }, 
        "free_bikes": 1, 
        "id": "33d70661f57d395f5131288c1dda9596", 
        "latitude": 38.009493, 
        "longitude": -1.148038, 
        "name": "C.D. Jc1", 
        "timestamp": "2017-08-15T04:50:11.976000Z"
      }, 
      {
        "empty_slots": 15, 
        "extra": {
          "slots": "16", 
          "uid": "198"
        }, 
        "free_bikes": 1, 
        "id": "a502eeb0ed8ce733b8112eaf3fd2f778", 
        "latitude": 37.998246, 
        "longitude": -1.140176, 
        "name": "Avd. de los Pinos", 
        "timestamp": "2017-08-15T04:50:11.977000Z"
      }, 
      {
        "empty_slots": 20, 
        "extra": {
          "slots": "20", 
          "uid": "199"
        }, 
        "free_bikes": 0, 
        "id": "b0365e8067a9351a082ddff2c84ee334", 
        "latitude": 37.994111, 
        "longitude": -1.124885, 
        "name": "Juan de Borb\u00f3n", 
        "timestamp": "2017-08-15T04:50:11.980000Z"
      }, 
      {
        "empty_slots": 20, 
        "extra": {
          "slots": "20", 
          "uid": "201"
        }, 
        "free_bikes": 0, 
        "id": "ce3612f7e7615dd8d6e79b2de8725a65", 
        "latitude": 37.981466, 
        "longitude": -1.114356, 
        "name": "Avd. Primero de Mayo", 
        "timestamp": "2017-08-15T04:50:11.982000Z"
      }, 
      {
        "empty_slots": 20, 
        "extra": {
          "slots": "20", 
          "uid": "202"
        }, 
        "free_bikes": 0, 
        "id": "8dcc08fa764483db18dba9cccb74a08e", 
        "latitude": 38.002931, 
        "longitude": -1.141493, 
        "name": "JCI- Senda de Granada", 
        "timestamp": "2017-08-15T04:50:11.983000Z"
      }, 
      {
        "empty_slots": 14, 
        "extra": {
          "slots": "16", 
          "uid": "203"
        }, 
        "free_bikes": 2, 
        "id": "b4a0611b2bffea37074a3cd63ad08579", 
        "latitude": 37.992326, 
        "longitude": -1.18486, 
        "name": "Los Jer\u00f3nimos", 
        "timestamp": "2017-08-15T04:50:11.984000Z"
      }, 
      {
        "empty_slots": 20, 
        "extra": {
          "slots": "20", 
          "uid": "205"
        }, 
        "free_bikes": 0, 
        "id": "c5a0be88d5386c9df9997dfc86585832", 
        "latitude": 37.98515, 
        "longitude": -1.132623, 
        "name": "Santa Catalina", 
        "timestamp": "2017-08-15T04:50:11.985000Z"
      }, 
      {
        "empty_slots": 13, 
        "extra": {
          "slots": "16", 
          "uid": "206"
        }, 
        "free_bikes": 3, 
        "id": "6c5fa02732c34276479b54e1802cd7c4", 
        "latitude": 38.000513, 
        "longitude": -1.135122, 
        "name": "Oficina de la bicicleta", 
        "timestamp": "2017-08-15T04:50:11.986000Z"
      }, 
      {
        "empty_slots": 20, 
        "extra": {
          "slots": "20", 
          "uid": "207"
        }, 
        "free_bikes": 0, 
        "id": "ccd3357cf8c7b89880e01323b8e3a4a8", 
        "latitude": 37.988679, 
        "longitude": -1.132271, 
        "name": "Gran V\u00eda", 
        "timestamp": "2017-08-15T04:50:11.987000Z"
      }, 
      {
        "empty_slots": 18, 
        "extra": {
          "slots": "18", 
          "uid": "208"
        }, 
        "free_bikes": 0, 
        "id": "40f73d05e03fe2e55f1f1bfdeb22cbce", 
        "latitude": 37.992787, 
        "longitude": -1.131311, 
        "name": "Plaza Circular 2", 
        "timestamp": "2017-08-15T04:50:11.988000Z"
      }, 
      {
        "empty_slots": 20, 
        "extra": {
          "slots": "20", 
          "uid": "209"
        }, 
        "free_bikes": 0, 
        "id": "6802e824fd278d2c79213f131e23aa41", 
        "latitude": 37.988207, 
        "longitude": -1.125025, 
        "name": "Plaza de la Merced 2", 
        "timestamp": "2017-08-15T04:50:11.989000Z"
      }, 
      {
        "empty_slots": 18, 
        "extra": {
          "slots": "18", 
          "uid": "210"
        }, 
        "free_bikes": 0, 
        "id": "341ac49cbb7bc8b8c70e641aca6aae89", 
        "latitude": 37.982073, 
        "longitude": -1.126785, 
        "name": "Plaza de la Cruz Roja", 
        "timestamp": "2017-08-15T04:50:11.990000Z"
      }, 
      {
        "empty_slots": 16, 
        "extra": {
          "slots": "16", 
          "uid": "211"
        }, 
        "free_bikes": 0, 
        "id": "dc7712c65c3ff29f0ed1a5572da66321", 
        "latitude": 37.983176, 
        "longitude": -1.13367, 
        "name": "Plano de San Francisco", 
        "timestamp": "2017-08-15T04:50:11.991000Z"
      }, 
      {
        "empty_slots": 18, 
        "extra": {
          "slots": "20", 
          "uid": "212"
        }, 
        "free_bikes": 2, 
        "id": "0266fa93bc7e0b555dcc17e9bbff32dd", 
        "latitude": 38.003837, 
        "longitude": -1.158217, 
        "name": "Joven Futura", 
        "timestamp": "2017-08-15T04:50:11.992000Z"
      }, 
      {
        "empty_slots": 16, 
        "extra": {
          "slots": "20", 
          "uid": "213"
        }, 
        "free_bikes": 4, 
        "id": "fd55e50543bd03508141b2e0532d9b00", 
        "latitude": 37.968776, 
        "longitude": -1.133704, 
        "name": "Paseo Florencia 2", 
        "timestamp": "2017-08-15T04:50:11.993000Z"
      }, 
      {
        "empty_slots": 20, 
        "extra": {
          "slots": "20", 
          "uid": "214"
        }, 
        "free_bikes": 0, 
        "id": "490a94bcdf06609aa20fdb35bba6cb33", 
        "latitude": 37.989876, 
        "longitude": -1.130274, 
        "name": "Alfonso X, El Sabio", 
        "timestamp": "2017-08-15T04:50:11.993000Z"
      }, 
      {
        "empty_slots": 16, 
        "extra": {
          "slots": "16", 
          "uid": "215"
        }, 
        "free_bikes": 0, 
        "id": "d88b0ae2c12cd684864ded7108f9cd1a", 
        "latitude": 37.99156, 
        "longitude": -1.125197, 
        "name": "Plaza Juan XXIII ", 
        "timestamp": "2017-08-15T04:50:11.994000Z"
      }, 
      {
        "empty_slots": 20, 
        "extra": {
          "slots": "20", 
          "uid": "216"
        }, 
        "free_bikes": 0, 
        "id": "3fddb67f16220b955fd91edae69bba29", 
        "latitude": 37.989194, 
        "longitude": -1.138785, 
        "name": "La Seda", 
        "timestamp": "2017-08-15T04:50:11.995000Z"
      }, 
      {
        "empty_slots": 15, 
        "extra": {
          "slots": "16", 
          "uid": "218"
        }, 
        "free_bikes": 1, 
        "id": "eb15be97909f36fd2eeb5d8d878c2f1c", 
        "latitude": 37.999639, 
        "longitude": -1.126925, 
        "name": "Avda. de Santiago", 
        "timestamp": "2017-08-15T04:50:11.996000Z"
      }, 
      {
        "empty_slots": 15, 
        "extra": {
          "slots": "20", 
          "uid": "219"
        }, 
        "free_bikes": 5, 
        "id": "f09e69d46994b2c0b25a93a55e8aacd3", 
        "latitude": 38.01356, 
        "longitude": -1.156282, 
        "name": "JCI- Espinardo", 
        "timestamp": "2017-08-15T04:50:11.997000Z"
      }, 
      {
        "empty_slots": 14, 
        "extra": {
          "slots": "14", 
          "uid": "220"
        }, 
        "free_bikes": 0, 
        "id": "ef80c04238b21bcb39edde917ba6ac66", 
        "latitude": 37.98278, 
        "longitude": -1.138355, 
        "name": "Malec\u00f3n", 
        "timestamp": "2017-08-15T04:50:11.998000Z"
      }, 
      {
        "empty_slots": 16, 
        "extra": {
          "slots": "20", 
          "uid": "221"
        }, 
        "free_bikes": 4, 
        "id": "703a668ca527beb1df87dd209a275dd2", 
        "latitude": 38.006401, 
        "longitude": -1.14742, 
        "name": "Calle Central", 
        "timestamp": "2017-08-15T04:50:11.999000Z"
      }, 
      {
        "empty_slots": 15, 
        "extra": {
          "slots": "16", 
          "uid": "222"
        }, 
        "free_bikes": 1, 
        "id": "c76b5f76f81747582d3d18ffa09ba519", 
        "latitude": 37.992628, 
        "longitude": -1.186486, 
        "name": "El Port\u00f3n", 
        "timestamp": "2017-08-15T04:50:12Z"
      }, 
      {
        "empty_slots": 20, 
        "extra": {
          "slots": "20", 
          "uid": "237"
        }, 
        "free_bikes": 0, 
        "id": "bcb43fa488b61cd25f6e42377f7485e1", 
        "latitude": 37.971916, 
        "longitude": -1.125048, 
        "name": "Santiago el Mayor", 
        "timestamp": "2017-08-15T04:50:12.001000Z"
      }, 
      {
        "empty_slots": 19, 
        "extra": {
          "slots": "20", 
          "uid": "238"
        }, 
        "free_bikes": 1, 
        "id": "748905b235f326d08c946052b1a9f7fa", 
        "latitude": 37.995391, 
        "longitude": -1.145538, 
        "name": "San Basilio", 
        "timestamp": "2017-08-15T04:50:12.002000Z"
      }, 
      {
        "empty_slots": 12, 
        "extra": {
          "slots": "14", 
          "uid": "178"
        }, 
        "free_bikes": 2, 
        "id": "a5072386d7c980f0f1c6f960ca4285ac", 
        "latitude": 37.98534, 
        "longitude": -1.127558, 
        "name": "Plaza Cetina", 
        "timestamp": "2017-08-15T04:50:11.950000Z"
      }, 
      {
        "empty_slots": 20, 
        "extra": {
          "slots": "20", 
          "uid": "183"
        }, 
        "free_bikes": 0, 
        "id": "4e318f87756dcb1dfe7ec3ae54c6bb80", 
        "latitude": 37.985948, 
        "longitude": -1.119933, 
        "name": "Avd La Fama", 
        "timestamp": "2017-08-15T04:50:11.958000Z"
      }, 
      {
        "empty_slots": 17, 
        "extra": {
          "slots": "20", 
          "uid": "200"
        }, 
        "free_bikes": 3, 
        "id": "83dd2baa24567052363975c6562400c1", 
        "latitude": 38.020625, 
        "longitude": -1.169095, 
        "name": "U.M.U. Rector Sabater", 
        "timestamp": "2017-08-15T04:50:11.981000Z"
      }, 
      {
        "empty_slots": 19, 
        "extra": {
          "slots": "20", 
          "uid": "217"
        }, 
        "free_bikes": 1, 
        "id": "8f5c576623d66063735582c1fd317808", 
        "latitude": 38.022702, 
        "longitude": -1.172719, 
        "name": "U.M.U. Aulario Norte", 
        "timestamp": "2017-08-15T04:50:11.996000Z"
      }, 
      {
        "empty_slots": 19, 
        "extra": {
          "slots": "20", 
          "uid": "246"
        }, 
        "free_bikes": 1, 
        "id": "8ababc9c8532fb75616ac4f163b581b5", 
        "latitude": 38.017598, 
        "longitude": -1.169302, 
        "name": "U.M.U. P. Pedro Jara Carrillo", 
        "timestamp": "2017-08-15T04:50:12.004000Z"
      }
    ]
  }
}