{
  "network": {
    "company": [
      "Nextbike GmbH"
    ], 
    "href": "/v2/networks/nextbike-hergiswil", 
    "id": "nextbike-hergiswil", 
    "location": {
      "city": "Hergiswil", 
      "country": "CH", 
      "latitude": 46.9905, 
      "longitude": 8.30829
    }, 
    "name": "Nextbike", 
    "stations": [
      {
        "empty_slots": null, 
        "extra": {
          "bike_uids": [
            "40594"
          ], 
          "number": "9057", 
          "uid": "715800"
        }, 
        "free_bikes": 1, 
        "id": "6b94893378c767544a23349fdc9a2247", 
        "latitude": 46.982852, 
        "longitude": 8.310173, 
        "name": "Bahnhof Dorf", 
        "timestamp": "2017-08-15T04:50:51.998000Z"
      }, 
      {
        "empty_slots": null, 
        "extra": {
          "number": "9058", 
          "uid": "715802"
        }, 
        "free_bikes": 0, 
        "id": "5aaf6ac2f296b778fb62f469f1eaa1db", 
        "latitude": 46.981338, 
        "longitude": 8.3115, 
        "name": "Glasi-Restaurant Adler", 
        "timestamp": "2017-08-15T04:50:51.999000Z"
      }, 
      {
        "empty_slots": null, 
        "extra": {
          "bike_uids": [
            "40583", 
            "40580", 
            "40480"
          ], 
          "number": "9053", 
          "uid": "715792"
        }, 
        "free_bikes": 3, 
        "id": "e2ca8a3eb3ef2f7d404f701bd77d3a3b", 
        "latitude": 46.990627, 
        "longitude": 8.311613, 
        "name": "Schulhaus Grossmatt", 
        "timestamp": "2017-08-15T04:50:51.994000Z"
      }, 
      {
        "empty_slots": null, 
        "extra": {
          "bike_uids": [
            "40489"
          ], 
          "number": "9056", 
          "uid": "715798"
        }, 
        "free_bikes": 1, 
        "id": "bc6f23dd87fbfa8645cec4da4ef2b298", 
        "latitude": 46.984423, 
        "longitude": 8.312188, 
        "name": "Schiffstation", 
        "timestamp": "2017-08-15T04:50:51.997000Z"
      }, 
      {
        "empty_slots": null, 
        "extra": {
          "bike_uids": [
            "40454"
          ], 
          "number": "9050", 
          "uid": "715785"
        }, 
        "free_bikes": 1, 
        "id": "23476d955530cabc8d8d45c8f04e12f8", 
        "latitude": 46.997597354492, 
        "longitude": 8.311071395874, 
        "name": "Gasthaus Schl\u00fcssel", 
        "timestamp": "2017-08-15T04:50:51.982000Z"
      }, 
      {
        "empty_slots": null, 
        "extra": {
          "bike_uids": [
            "40142", 
            "40229", 
            "40236", 
            "40243", 
            "40306"
          ], 
          "number": "9052", 
          "uid": "715791"
        }, 
        "free_bikes": 8, 
        "id": "f2fdaa147dc2caec0527fe4ec2a2f56c", 
        "latitude": 46.993715, 
        "longitude": 8.31281, 
        "name": "Bahnhof Matt", 
        "timestamp": "2017-08-15T04:50:51.994000Z"
      }, 
      {
        "empty_slots": null, 
        "extra": {
          "number": "9055", 
          "uid": "715796"
        }, 
        "free_bikes": 0, 
        "id": "09c5d1af43738998f664f411ee20d242", 
        "latitude": 46.98495, 
        "longitude": 8.311153, 
        "name": "Schulhaus Dorf", 
        "timestamp": "2017-08-15T04:50:51.996000Z"
      }, 
      {
        "empty_slots": null, 
        "extra": {
          "bike_uids": [
            "40608", 
            "40607", 
            "40598", 
            "40587", 
            "40573"
          ], 
          "number": "9059", 
          "uid": "715804"
        }, 
        "free_bikes": 5, 
        "id": "a245cbfc05f4da8b5a126d843270f4bd", 
        "latitude": 46.989071929534, 
        "longitude": 8.3147782087326, 
        "name": "Gemeindehaus", 
        "timestamp": "2017-08-15T04:50:52Z"
      }, 
      {
        "empty_slots": null, 
        "extra": {
          "bike_uids": [
            "40221", 
            "40325", 
            "40556"
          ], 
          "number": "9051", 
          "uid": "715786"
        }, 
        "free_bikes": 3, 
        "id": "6d9d7a091b323e83f7a53bac18b68aa1", 
        "latitude": 46.993462876188, 
        "longitude": 8.3119243383408, 
        "name": "Schulhaus Matt", 
        "timestamp": "2017-08-15T04:50:51.993000Z"
      }, 
      {
        "empty_slots": null, 
        "extra": {
          "bike_uids": [
            "40250", 
            "40595", 
            "40518", 
            "40498", 
            "40479"
          ], 
          "number": "9054", 
          "uid": "715794"
        }, 
        "free_bikes": 5, 
        "id": "ed183e105eed27351bcaa2b87d5cd5fb", 
        "latitude": 46.986246896492, 
        "longitude": 8.3065921068192, 
        "name": "Hotel Roggerli", 
        "timestamp": "2017-08-15T04:50:51.995000Z"
      }
    ]
  }
}