{
  "network": {
    "company": [
      "Nextbike GmbH"
    ], 
    "href": "/v2/networks/nextbike-flensburg", 
    "id": "nextbike-flensburg", 
    "location": {
      "city": "Flensburg", 
      "country": "DE", 
      "latitude": 54.7804, 
      "longitude": 9.43571
    }, 
    "name": "Nextbike", 
    "stations": [
      {
        "empty_slots": null, 
        "extra": {
          "bike_uids": [
            "30540", 
            "30533", 
            "30523", 
            "30522"
          ], 
          "number": "2902", 
          "uid": "45765"
        }, 
        "free_bikes": 4, 
        "id": "580b5492ed628dfc41f49def7d0c96a3", 
        "latitude": 54.81550911024, 
        "longitude": 9.4723874330521, 
        "name": "Twedter Plack", 
        "timestamp": "2017-08-15T04:47:38.736000Z"
      }, 
      {
        "empty_slots": null, 
        "extra": {
          "bike_uids": [
            "30547", 
            "30516", 
            "30504", 
            "30501"
          ], 
          "number": "2904", 
          "uid": "45760"
        }, 
        "free_bikes": 4, 
        "id": "f24d652fec87005472e16cdb093f8a19", 
        "latitude": 54.789514400513, 
        "longitude": 9.4337582588196, 
        "name": "Willy-Brandt-Platz", 
        "timestamp": "2017-08-15T04:47:38.735000Z"
      }, 
      {
        "empty_slots": null, 
        "extra": {
          "bike_uids": [
            "30546", 
            "30543", 
            "30529", 
            "30552"
          ], 
          "number": "2901", 
          "uid": "47493"
        }, 
        "free_bikes": 4, 
        "id": "f76296bd288ba20c13846d688da100f8", 
        "latitude": 54.774968376204, 
        "longitude": 9.4373738765717, 
        "name": "Hauptbahnhof", 
        "timestamp": "2017-08-15T04:47:38.737000Z"
      }, 
      {
        "empty_slots": null, 
        "extra": {
          "bike_uids": [
            "30521", 
            "30519"
          ], 
          "number": "2908", 
          "uid": "48470"
        }, 
        "free_bikes": 2, 
        "id": "ad3f235fe95fad492402ebfc0d53d184", 
        "latitude": 54.795712349674, 
        "longitude": 9.4308829307556, 
        "name": "Nordertorplatz / Ph\u00e4nomenta", 
        "timestamp": "2017-08-15T04:47:38.743000Z"
      }, 
      {
        "empty_slots": null, 
        "extra": {
          "bike_uids": [
            "30539", 
            "30538"
          ], 
          "number": "2900", 
          "uid": "48471"
        }, 
        "free_bikes": 2, 
        "id": "4d4c410ae876d38ae9d205f7baac9f9b", 
        "latitude": 54.790801078888, 
        "longitude": 9.4378781318665, 
        "name": "Fischereihafen (Ostseite)", 
        "timestamp": "2017-08-15T04:47:38.747000Z"
      }, 
      {
        "empty_slots": null, 
        "extra": {
          "bike_uids": [
            "30541"
          ], 
          "number": "2905", 
          "uid": "48469"
        }, 
        "free_bikes": 1, 
        "id": "66eb694353a185366bc5217fbb67956d", 
        "latitude": 54.782504995949, 
        "longitude": 9.4368588924408, 
        "name": "Dr.-Todsen-Str. / Ecke Angelburger Str.", 
        "timestamp": "2017-08-15T04:47:38.742000Z"
      }, 
      {
        "empty_slots": null, 
        "extra": {
          "bike_uids": [
            "30531", 
            "30515"
          ], 
          "number": "2907", 
          "uid": "45757"
        }, 
        "free_bikes": 2, 
        "id": "a4329a3c4255e0e4407cd57430e35a14", 
        "latitude": 54.785171558697, 
        "longitude": 9.4379425048828, 
        "name": "ZOB ", 
        "timestamp": "2017-08-15T04:47:38.726000Z"
      }, 
      {
        "empty_slots": null, 
        "extra": {
          "bike_uids": [
            "30548", 
            "30542", 
            "30513", 
            "30506"
          ], 
          "number": "2909", 
          "uid": "242867"
        }, 
        "free_bikes": 4, 
        "id": "3f17e6cb30f27279e1e500eb28f26adb", 
        "latitude": 54.82719463144, 
        "longitude": 9.4189095497131, 
        "name": "Wassersleben ", 
        "timestamp": "2017-08-15T04:47:38.748000Z"
      }, 
      {
        "empty_slots": null, 
        "extra": {
          "bike_uids": [
            "30549", 
            "30505"
          ], 
          "number": "2903", 
          "uid": "48465"
        }, 
        "free_bikes": 2, 
        "id": "4eff1a151db11ecfb5d7d78ac3c11e3e", 
        "latitude": 54.775667645507, 
        "longitude": 9.4526624679565, 
        "name": "Campus Unigel\u00e4nde", 
        "timestamp": "2017-08-15T04:47:38.740000Z"
      }
    ]
  }
}