{
  "network": {
    "stations": [
      {
        "empty_slots": null, 
        "extra": {
          "number": "8222", 
          "uid": "1407534"
        }, 
        "free_bikes": 0, 
        "id": "9960de9da952fb8f8bfdefcebc55aa32", 
        "latitude": 55.93506, 
        "longitude": -3.33516, 
        "name": "Main Reception, Gogarburn", 
        "timestamp": "2017-08-15T04:49:38.903000Z"
      }, 
      {
        "empty_slots": null, 
        "extra": {
          "bike_uids": [
            "81582", 
            "99621", 
            "99602"
          ], 
          "number": "8227", 
          "uid": "1887781"
        }, 
        "free_bikes": 3, 
        "id": "a5e73e249a07b0814e9664eb95a10666", 
        "latitude": 55.93353, 
        "longitude": -3.335474, 
        "name": "Car Park, Gogarburn", 
        "timestamp": "2017-08-15T04:49:38.907000Z"
      }, 
      {
        "empty_slots": null, 
        "extra": {
          "bike_uids": [
            "99618", 
            "99613", 
            "99612", 
            "99611", 
            "99608"
          ], 
          "number": "8220", 
          "uid": "1407493"
        }, 
        "free_bikes": 6, 
        "id": "97fb1d7fa46450a2e0db56352e8167ce", 
        "latitude": 55.93541, 
        "longitude": -3.33257, 
        "name": "East Reception, Gogarburn", 
        "timestamp": "2017-08-15T04:49:38.898000Z"
      }, 
      {
        "empty_slots": null, 
        "extra": {
          "bike_uids": [
            "99607"
          ], 
          "number": "8221", 
          "uid": "1407502"
        }, 
        "free_bikes": 1, 
        "id": "37bff64ae30799db0655e510fe4cdc69", 
        "latitude": 55.93729, 
        "longitude": -3.32765, 
        "name": "Business School, Gogarburn", 
        "timestamp": "2017-08-15T04:49:38.902000Z"
      }, 
      {
        "empty_slots": null, 
        "extra": {
          "bike_uids": [
            "99617", 
            "99614"
          ], 
          "number": "8223", 
          "uid": "1407541"
        }, 
        "free_bikes": 2, 
        "id": "2743c68236a3cc08c6aa86a7c6fb740c", 
        "latitude": 55.93426, 
        "longitude": -3.33943, 
        "name": "Gogarburn House, Gogarburn", 
        "timestamp": "2017-08-15T04:49:38.904000Z"
      }, 
      {
        "empty_slots": 4, 
        "extra": {
          "bike_uids": [
            "99616"
          ], 
          "number": "8226", 
          "slots": 5, 
          "uid": "1687476"
        }, 
        "free_bikes": 1, 
        "id": "5ebcbc286c73fa1b4123ac8d882971a7", 
        "latitude": 55.93585, 
        "longitude": -3.33955, 
        "name": "Conference Centre, Gogarburn", 
        "timestamp": "2017-08-15T04:49:38.906000Z"
      }, 
      {
        "empty_slots": null, 
        "extra": {
          "bike_uids": [
            "99609", 
            "99603"
          ], 
          "number": "8224", 
          "uid": "1407543"
        }, 
        "free_bikes": 2, 
        "id": "9389da452965374825081b43fd117359", 
        "latitude": 55.93291, 
        "longitude": -3.30818, 
        "name": "North Reception, Drummond House", 
        "timestamp": "2017-08-15T04:49:38.905000Z"
      }
    ]
  }
}