{
  "network": {
    "company": [
      "Nextbike GmbH"
    ], 
    "href": "/v2/networks/nextbike-thermenregion", 
    "id": "nextbike-thermenregion", 
    "location": {
      "city": "Thermenregion", 
      "country": "AT", 
      "latitude": 47.9892, 
      "longitude": 16.2646
    }, 
    "name": "Nextbike", 
    "stations": [
      {
        "empty_slots": null, 
        "extra": {
          "bike_uids": [
            "09578", 
            "09734", 
            "09260", 
            "09255", 
            "08718"
          ], 
          "number": "3114", 
          "uid": "44624"
        }, 
        "free_bikes": 5, 
        "id": "a222c970388bc5c0849b6b46c5805600", 
        "latitude": 48.047981958256, 
        "longitude": 16.311816573143, 
        "name": "Guntramsdorf / Hst. Lokalbahn", 
        "timestamp": "2017-08-15T04:47:37.120000Z"
      }, 
      {
        "empty_slots": null, 
        "extra": {
          "bike_uids": [
            "09558", 
            "09796"
          ], 
          "number": "3162", 
          "uid": "121200"
        }, 
        "free_bikes": 2, 
        "id": "af9554585cbaf79bd0a0755098e54b16", 
        "latitude": 47.956816615498, 
        "longitude": 16.239541769028, 
        "name": "Kottingbrunn / Weingut Rathbauer", 
        "timestamp": "2017-08-15T04:47:37.143000Z"
      }, 
      {
        "empty_slots": null, 
        "extra": {
          "bike_uids": [
            "08792", 
            "08517", 
            "08576", 
            "08322"
          ], 
          "number": "3116", 
          "uid": "44626"
        }, 
        "free_bikes": 4, 
        "id": "84eb876e7164d4e0a97927e9576af268", 
        "latitude": 48.041598204044, 
        "longitude": 16.285294890404, 
        "name": "Gumpoldskirchen / Bahnhof", 
        "timestamp": "2017-08-15T04:47:37.123000Z"
      }, 
      {
        "empty_slots": null, 
        "extra": {
          "bike_uids": [
            "09799", 
            "09539", 
            "08815", 
            "08753", 
            "08735"
          ], 
          "number": "3107", 
          "uid": "46216"
        }, 
        "free_bikes": 7, 
        "id": "66045d44259c0266a9ac075d1ff5dbae", 
        "latitude": 48.008038213126, 
        "longitude": 16.231575608253, 
        "name": "Baden / Tourismusinfo R\u00f6mertherme", 
        "timestamp": "2017-08-15T04:47:37.126000Z"
      }, 
      {
        "empty_slots": null, 
        "extra": {
          "bike_uids": [
            "08465", 
            "08508", 
            "08373"
          ], 
          "number": "3112", 
          "uid": "46248"
        }, 
        "free_bikes": 3, 
        "id": "94424a37965044a7ac73aa551bb5b208", 
        "latitude": 48.018366139438, 
        "longitude": 16.258885860443, 
        "name": "Pfaffst\u00e4tten / Bahnhof ", 
        "timestamp": "2017-08-15T04:47:37.141000Z"
      }, 
      {
        "empty_slots": null, 
        "extra": {
          "bike_uids": [
            "09866", 
            "09259", 
            "08800", 
            "08686", 
            "08511"
          ], 
          "number": "3105", 
          "uid": "46197"
        }, 
        "free_bikes": 7, 
        "id": "dccafce284d4aa31aa0cab1278bccf37", 
        "latitude": 48.004581951022, 
        "longitude": 16.242867708206, 
        "name": "Baden / Bahnhof ", 
        "timestamp": "2017-08-15T04:47:37.125000Z"
      }, 
      {
        "empty_slots": null, 
        "extra": {
          "bike_uids": [
            "09568", 
            "09283", 
            "08757", 
            "08340"
          ], 
          "number": "3163", 
          "uid": "349246"
        }, 
        "free_bikes": 4, 
        "id": "725d7b4d95bb4dff51372e6e731436a5", 
        "latitude": 47.950730562273, 
        "longitude": 16.227836608887, 
        "name": "Kottingbrunn / Raiba - EKZ", 
        "timestamp": "2017-08-15T04:47:37.145000Z"
      }, 
      {
        "empty_slots": null, 
        "extra": {
          "bike_uids": [
            "09769", 
            "09276"
          ], 
          "number": "3164", 
          "uid": "121202"
        }, 
        "free_bikes": 2, 
        "id": "482396f7477c0b80bb5fd095b0288b6e", 
        "latitude": 47.944018546205, 
        "longitude": 16.223952770233, 
        "name": "Kottingbrunn / Volkschule", 
        "timestamp": "2017-08-15T04:47:37.144000Z"
      }, 
      {
        "empty_slots": null, 
        "extra": {
          "bike_uids": [
            "09976", 
            "08739", 
            "08571"
          ], 
          "number": "3110", 
          "uid": "44621"
        }, 
        "free_bikes": 3, 
        "id": "d66be0d8641dc1417c47954c658ad782", 
        "latitude": 47.968900371785, 
        "longitude": 16.223464608192, 
        "name": "Bad V\u00f6slau / Bahnhof", 
        "timestamp": "2017-08-15T04:47:37.100000Z"
      }, 
      {
        "empty_slots": null, 
        "extra": {
          "bike_uids": [
            "09621", 
            "08871", 
            "08464", 
            "08317"
          ], 
          "number": "3111", 
          "uid": "44622"
        }, 
        "free_bikes": 4, 
        "id": "9bb1465f964b1f8f391f3dcc05b5e4b2", 
        "latitude": 47.965473814845, 
        "longitude": 16.214506030083, 
        "name": "Bad V\u00f6slau / Schlossplatz ", 
        "timestamp": "2017-08-15T04:47:37.113000Z"
      }, 
      {
        "empty_slots": null, 
        "extra": {
          "bike_uids": [
            "09648", 
            "09251", 
            "09977", 
            "08722"
          ], 
          "number": "3115", 
          "uid": "44629"
        }, 
        "free_bikes": 4, 
        "id": "c006fc65bd9c4223665c880cbdc208d9", 
        "latitude": 48.06393788246, 
        "longitude": 16.313849687576, 
        "name": "Guntramsdorf / Hst. Neu Guntramsdorf", 
        "timestamp": "2017-08-15T04:47:37.124000Z"
      }, 
      {
        "empty_slots": null, 
        "extra": {
          "bike_uids": [
            "09731", 
            "08973", 
            "08461"
          ], 
          "number": "3109", 
          "uid": "66533"
        }, 
        "free_bikes": 3, 
        "id": "16d9478aa3c149f6f8d3595659417de1", 
        "latitude": 48.004341475571, 
        "longitude": 16.254138350487, 
        "name": "Baden / BH", 
        "timestamp": "2017-08-15T04:47:37.142000Z"
      }
    ]
  }
}