{
  "network": {
    "company": [
      "Nextbike GmbH"
    ], 
    "href": "/v2/networks/nextbike-sursee", 
    "id": "nextbike-sursee", 
    "location": {
      "city": "Sursee", 
      "country": "CH", 
      "latitude": 47.1713, 
      "longitude": 8.10877
    }, 
    "name": "Nextbike", 
    "stations": [
      {
        "empty_slots": null, 
        "extra": {
          "bike_uids": [
            "40638", 
            "40634", 
            "40344"
          ], 
          "number": "9006", 
          "uid": "286240"
        }, 
        "free_bikes": 3, 
        "id": "70e2fdff63d8bf7c9a3cfef7372cf995", 
        "latitude": 47.17434, 
        "longitude": 8.125157, 
        "name": "Strandbad", 
        "timestamp": "2017-08-15T04:49:09.192000Z"
      }, 
      {
        "empty_slots": null, 
        "extra": {
          "bike_uids": [
            "40635", 
            "40619", 
            "40345"
          ], 
          "number": "9005", 
          "uid": "286239"
        }, 
        "free_bikes": 3, 
        "id": "fde93152bd192a7ca2cb0d2f0e056d9f", 
        "latitude": 47.17295, 
        "longitude": 8.110643, 
        "name": "M\u00e4rtplatz", 
        "timestamp": "2017-08-15T04:49:09.190000Z"
      }, 
      {
        "empty_slots": null, 
        "extra": {
          "bike_uids": [
            "40613"
          ], 
          "number": "9010", 
          "uid": "355154"
        }, 
        "free_bikes": 1, 
        "id": "7092165e76446f00ae88aebc61af2498", 
        "latitude": 47.17089958, 
        "longitude": 8.10713672, 
        "name": "Reformierte Kirche", 
        "timestamp": "2017-08-15T04:49:09.199000Z"
      }, 
      {
        "empty_slots": null, 
        "extra": {
          "bike_uids": [
            "40626", 
            "40625", 
            "40622", 
            "40617", 
            "40614"
          ], 
          "number": "9003", 
          "uid": "286235"
        }, 
        "free_bikes": 5, 
        "id": "61a0cf54fe47f2ee6935d01095b2ce2b", 
        "latitude": 47.171659, 
        "longitude": 8.106709, 
        "name": "Stadtverwaltung", 
        "timestamp": "2017-08-15T04:49:09.174000Z"
      }, 
      {
        "empty_slots": null, 
        "extra": {
          "bike_uids": [
            "40636", 
            "40610", 
            "40341"
          ], 
          "number": "9004", 
          "uid": "286236"
        }, 
        "free_bikes": 3, 
        "id": "51f8ba0b1dd9f03956ad44e61d7d75b3", 
        "latitude": 47.171585, 
        "longitude": 8.111415, 
        "name": "M\u00fcnsterplatz", 
        "timestamp": "2017-08-15T04:49:09.183000Z"
      }, 
      {
        "empty_slots": null, 
        "extra": {
          "bike_uids": [
            "40621", 
            "40551", 
            "40343"
          ], 
          "number": "9001", 
          "uid": "286233"
        }, 
        "free_bikes": 3, 
        "id": "b62cc914f107876399af23b09c676772", 
        "latitude": 47.178162, 
        "longitude": 8.097114, 
        "name": "Caritas Wohnen", 
        "timestamp": "2017-08-15T04:49:09.158000Z"
      }, 
      {
        "empty_slots": null, 
        "extra": {
          "bike_uids": [
            "40620", 
            "40612", 
            "40609", 
            "40342"
          ], 
          "number": "9007", 
          "uid": "348292"
        }, 
        "free_bikes": 4, 
        "id": "628dd7f7c19efce5b1012140210c0977", 
        "latitude": 47.17386123, 
        "longitude": 8.12109248, 
        "name": "Mariazell", 
        "timestamp": "2017-08-15T04:49:09.194000Z"
      }, 
      {
        "empty_slots": null, 
        "extra": {
          "bike_uids": [
            "40637", 
            "40630", 
            "40624"
          ], 
          "number": "9002", 
          "uid": "286234"
        }, 
        "free_bikes": 3, 
        "id": "df6613b78dbc3d92705383f3c1aec193", 
        "latitude": 47.171012, 
        "longitude": 8.098052, 
        "name": "Bahnhof", 
        "timestamp": "2017-08-15T04:49:09.170000Z"
      }, 
      {
        "empty_slots": null, 
        "extra": {
          "bike_uids": [
            "40632", 
            "40631", 
            "40340"
          ], 
          "number": "9008", 
          "uid": "348305"
        }, 
        "free_bikes": 3, 
        "id": "9108dc2697c82fd18295d5ee333c94cd", 
        "latitude": 47.1695, 
        "longitude": 8.09566, 
        "name": "Haselmatte 2C", 
        "timestamp": "2017-08-15T04:49:09.198000Z"
      }, 
      {
        "empty_slots": null, 
        "extra": {
          "bike_uids": [
            "40633", 
            "40627", 
            "40615", 
            "40611"
          ], 
          "number": "9011", 
          "uid": "3025174"
        }, 
        "free_bikes": 4, 
        "id": "846de6bdbb5f1dac34fba32fce7d7272", 
        "latitude": 47.178009074769, 
        "longitude": 8.1107390289253, 
        "name": "Sandgruebestrasse", 
        "timestamp": "2017-08-15T04:49:09.203000Z"
      }, 
      {
        "empty_slots": null, 
        "extra": {
          "bike_uids": [
            "40629", 
            "40618"
          ], 
          "number": "9009", 
          "uid": "348294"
        }, 
        "free_bikes": 2, 
        "id": "8a4b9404951c207aa71c4719a2449ad7", 
        "latitude": 47.18377724, 
        "longitude": 8.10928945, 
        "name": "Garage Heller", 
        "timestamp": "2017-08-15T04:49:09.196000Z"
      }
    ]
  }
}