{
  "network": {
    "company": [
      "Nextbike GmbH"
    ], 
    "href": "/v2/networks/nextbike-wienerwald", 
    "id": "nextbike-wienerwald", 
    "location": {
      "city": "WienerWald", 
      "country": "AT", 
      "latitude": 48.1926, 
      "longitude": 16.141
    }, 
    "name": "Nextbike", 
    "stations": [
      {
        "empty_slots": null, 
        "extra": {
          "bike_uids": [
            "08880", 
            "08370", 
            "08272", 
            "34602"
          ], 
          "number": "3713", 
          "uid": "722282"
        }, 
        "free_bikes": 4, 
        "id": "b7c57cd9d885203a7f13a2aecb313776", 
        "latitude": 48.207511785053, 
        "longitude": 16.18840277195, 
        "name": "Purkersdorf / BHF Unterpurkersdorf", 
        "timestamp": "2017-08-15T04:48:41.253000Z"
      }, 
      {
        "empty_slots": null, 
        "extra": {
          "bike_uids": [
            "09981", 
            "08575", 
            "08376"
          ], 
          "number": "3701", 
          "uid": "187157"
        }, 
        "free_bikes": 3, 
        "id": "3560ee746c338aa6ddd0160d7831789c", 
        "latitude": 48.206285533549, 
        "longitude": 16.176552772522, 
        "name": "Purkersdorf / Zentrum Hst.", 
        "timestamp": "2017-08-15T04:48:41.219000Z"
      }, 
      {
        "empty_slots": null, 
        "extra": {
          "bike_uids": [
            "09624", 
            "09620", 
            "09284", 
            "08807", 
            "08701"
          ], 
          "number": "3703", 
          "uid": "187159"
        }, 
        "free_bikes": 10, 
        "id": "e41d8b0d29522b3e5eb485bb4667a1d2", 
        "latitude": 48.196166944403, 
        "longitude": 16.260318160057, 
        "name": "Purkersdorf / Bahnhof H\u00fctteldorf", 
        "timestamp": "2017-08-15T04:48:41.232000Z"
      }, 
      {
        "empty_slots": null, 
        "extra": {
          "bike_uids": [
            "08574", 
            "08394", 
            "08391", 
            "08281"
          ], 
          "number": "3706", 
          "uid": "200896"
        }, 
        "free_bikes": 4, 
        "id": "e42ce19294f58ba8ad53b31de9bb7944", 
        "latitude": 48.185946213503, 
        "longitude": 16.093972921371, 
        "name": "Tullnerbach / BHF Tullnerbach - Pressbaum", 
        "timestamp": "2017-08-15T04:48:41.235000Z"
      }, 
      {
        "empty_slots": null, 
        "extra": {
          "bike_uids": [
            "09553", 
            "08873", 
            "08397", 
            "34601"
          ], 
          "number": "3704", 
          "uid": "187160"
        }, 
        "free_bikes": 4, 
        "id": "67159ed563d6e4b9e260f18694b24150", 
        "latitude": 48.2290468384, 
        "longitude": 16.154108047485, 
        "name": "Gablitz / Park & Ride", 
        "timestamp": "2017-08-15T04:48:41.233000Z"
      }, 
      {
        "empty_slots": null, 
        "extra": {
          "bike_uids": [
            "09673", 
            "08991"
          ], 
          "number": "3705", 
          "uid": "200895"
        }, 
        "free_bikes": 2, 
        "id": "8f9295ac88bb8c432355a05223e16c35", 
        "latitude": 48.179193261926, 
        "longitude": 16.076903343201, 
        "name": "Pressbaum / Rathaus", 
        "timestamp": "2017-08-15T04:48:41.234000Z"
      }, 
      {
        "empty_slots": null, 
        "extra": {
          "bike_uids": [
            "09269", 
            "08387", 
            "08385", 
            "34600"
          ], 
          "number": "3702", 
          "uid": "187158"
        }, 
        "free_bikes": 4, 
        "id": "a67150091b5ae1a73a308ef338aaec92", 
        "latitude": 48.206203305721, 
        "longitude": 16.201277375221, 
        "name": "Purkersdorf / Sanatorium Hst.", 
        "timestamp": "2017-08-15T04:48:41.230000Z"
      }
    ]
  }
}