{
  "network": {
    "company": [
      "Gobike A/S"
    ], 
    "href": "/v2/networks/nu-connect", 
    "id": "nu-connect", 
    "location": {
      "city": "Utrecht", 
      "country": "NL", 
      "latitude": 52.117, 
      "longitude": 5.067
    }, 
    "name": "Nu-Connect", 
    "stations": [
      {
        "empty_slots": null, 
        "extra": {
          "address": "Keulsekade 181, Utrecht", 
          "altitude": 2, 
          "status": 0, 
          "uid": 55
        }, 
        "free_bikes": 2, 
        "id": "34a85bea8b1b6b27018c9052d481eec6", 
        "latitude": 52.102046966552734, 
        "longitude": 5.077981472015381, 
        "name": "Eneco Centrale Merwedekanaal", 
        "timestamp": "2017-08-15T04:48:38.707000Z"
      }, 
      {
        "empty_slots": null, 
        "extra": {
          "address": "Niels Bohrweg 121, Lage Weide, 3542CA Utrecht", 
          "altitude": 0, 
          "status": 0, 
          "uid": 52
        }, 
        "free_bikes": 1, 
        "id": "908c320bc246b740ff2a5347ffae64ca", 
        "latitude": 52.12099838256836, 
        "longitude": 5.047999858856201, 
        "name": "UW Bedrijven", 
        "timestamp": "2017-08-15T04:48:38.715000Z"
      }, 
      {
        "empty_slots": null, 
        "extra": {
          "address": "Proostwetering 90, De Wetering, 3543 AJ Utrecht", 
          "altitude": 0, 
          "status": 0, 
          "uid": 59
        }, 
        "free_bikes": 4, 
        "id": "1dbc6cc4f9488de6f9ddc27aa03983e5", 
        "latitude": 52.11614990234375, 
        "longitude": 5.032657146453857, 
        "name": "Shell tankstation de Wetering", 
        "timestamp": "2017-08-15T04:48:38.700000Z"
      }, 
      {
        "empty_slots": null, 
        "extra": {
          "address": "Atoomweg 63, Lage Weide, 3542 AA Utrecht", 
          "altitude": 0, 
          "status": 0, 
          "uid": 50
        }, 
        "free_bikes": 1, 
        "id": "5705128d7ba68ba45d347846f04a94c5", 
        "latitude": 52.1161003112793, 
        "longitude": 5.055500030517578, 
        "name": "Vineyard Food & Drinks", 
        "timestamp": "2017-08-15T04:48:38.713000Z"
      }, 
      {
        "empty_slots": null, 
        "extra": {
          "address": "Westkanaaldijk 9, Lage Weide, 3606AM Maarssen", 
          "altitude": 0, 
          "status": 0, 
          "uid": 58
        }, 
        "free_bikes": 1, 
        "id": "c714d7928a0cc8045850d950a21bf166", 
        "latitude": 52.135467529296875, 
        "longitude": 5.034293174743652, 
        "name": "Station Maarssen", 
        "timestamp": "2017-08-15T04:48:38.706000Z"
      }, 
      {
        "empty_slots": null, 
        "extra": {
          "address": "Uraniumweg  27, Lage weide, 3542AK Utrecht", 
          "altitude": 1, 
          "status": 0, 
          "uid": 57
        }, 
        "free_bikes": 0, 
        "id": "4c75d55bbfdd9aecc5a65646daafa39b", 
        "latitude": 52.11281967163086, 
        "longitude": 5.060447692871094, 
        "name": "Aannemersbedrijf Oskam BV", 
        "timestamp": "2017-08-15T04:48:38.709000Z"
      }, 
      {
        "empty_slots": null, 
        "extra": {
          "address": "Proostwetering 16-28, De Wetering, 3543 AE Utrecht", 
          "altitude": 0, 
          "status": 0, 
          "uid": 60
        }, 
        "free_bikes": 4, 
        "id": "5e43d9813aa1464d99f88176b62d40cb", 
        "latitude": 52.11014175415039, 
        "longitude": 5.047140121459961, 
        "name": "Proostwetering 26 U2Point", 
        "timestamp": "2017-08-15T04:48:38.716000Z"
      }
    ]
  }
}