{
  "network": {
    "company": [
      "Comunicare S.r.l."
    ], 
    "href": "/v2/networks/saluzzo", 
    "id": "saluzzo", 
    "location": {
      "city": "Saluzzo", 
      "country": "IT", 
      "latitude": 44.6445404, 
      "longitude": 7.492735499999999
    }, 
    "name": "Saluzzo", 
    "stations": [
      {
        "empty_slots": 0, 
        "extra": {
          "status": "offline"
        }, 
        "free_bikes": 0, 
        "id": "03ed639a9bd730aad7716525993ec73f", 
        "latitude": 44.6440948, 
        "longitude": 7.4929582, 
        "name": "Risorgimento", 
        "timestamp": "2017-08-15T04:48:38.406000Z"
      }, 
      {
        "empty_slots": 0, 
        "extra": {
          "status": "offline"
        }, 
        "free_bikes": 0, 
        "id": "ce24c723343aab132d3e2d714c0f82a1", 
        "latitude": 44.6454352, 
        "longitude": 7.4933404, 
        "name": "Garibaldi", 
        "timestamp": "2017-08-15T04:48:38.408000Z"
      }, 
      {
        "empty_slots": 0, 
        "extra": {
          "status": "offline"
        }, 
        "free_bikes": 0, 
        "id": "ca8cd9e69854c00f2e46df001ecf6dce", 
        "latitude": 44.6475971, 
        "longitude": 7.491861, 
        "name": "XX Settembre", 
        "timestamp": "2017-08-15T04:48:38.409000Z"
      }, 
      {
        "empty_slots": 0, 
        "extra": {
          "status": "offline"
        }, 
        "free_bikes": 0, 
        "id": "187585f3e7c09f93feeba61fe3f74439", 
        "latitude": 44.6471249, 
        "longitude": 7.4840497, 
        "name": "Piemonte", 
        "timestamp": "2017-08-15T04:48:38.410000Z"
      }, 
      {
        "empty_slots": 0, 
        "extra": {
          "status": "offline"
        }, 
        "free_bikes": 0, 
        "id": "2ef578f63cd9417664856606dcb46b4e", 
        "latitude": 44.6490911, 
        "longitude": 7.4882992, 
        "name": "Stazione Bus", 
        "timestamp": "2017-08-15T04:48:38.411000Z"
      }, 
      {
        "empty_slots": 0, 
        "extra": {
          "status": "offline"
        }, 
        "free_bikes": 0, 
        "id": "b66aa192c4bfd439d37b9b9d01c5fe8a", 
        "latitude": 44.6428885, 
        "longitude": 7.4953448, 
        "name": "Ospedale", 
        "timestamp": "2017-08-15T04:48:38.412000Z"
      }, 
      {
        "empty_slots": 0, 
        "extra": {
          "status": "offline"
        }, 
        "free_bikes": 0, 
        "id": "0827376275d1ec01e9d8b1e087834e78", 
        "latitude": 44.64548302060923, 
        "longitude": 7.496001720428467, 
        "name": "Tribunale", 
        "timestamp": "2017-08-15T04:48:38.412000Z"
      }, 
      {
        "empty_slots": 0, 
        "extra": {
          "status": "offline"
        }, 
        "free_bikes": 0, 
        "id": "81f027a7a6d7eda2558e3a99527280a8", 
        "latitude": 44.6427089, 
        "longitude": 7.498064, 
        "name": "Stazione FF.SS.", 
        "timestamp": "2017-08-15T04:48:38.413000Z"
      }, 
      {
        "empty_slots": 0, 
        "extra": {
          "status": "offline"
        }, 
        "free_bikes": 0, 
        "id": "18d125daa5002730766be615c8196f2c", 
        "latitude": 44.6467029, 
        "longitude": 7.4940277, 
        "name": "Poste", 
        "timestamp": "2017-08-15T04:48:38.414000Z"
      }
    ]
  }
}