{
  "network": {
    "company": [
      "Comunicare S.r.l."
    ], 
    "href": "/v2/networks/speziainbici", 
    "id": "speziainbici", 
    "location": {
      "city": "La Spezia", 
      "country": "IT", 
      "latitude": 44.1024504, 
      "longitude": 9.824082599999999
    }, 
    "name": "Speziainbici", 
    "stations": [
      {
        "empty_slots": 10, 
        "extra": {
          "status": "online"
        }, 
        "free_bikes": 3, 
        "id": "48afd6318bc23696cb89fdacea2be282", 
        "latitude": 44.10731365919346, 
        "longitude": 9.807626008987427, 
        "name": "02. Piazza d'Armi", 
        "timestamp": "2017-08-15T04:47:31.489000Z"
      }, 
      {
        "empty_slots": 6, 
        "extra": {
          "status": "online"
        }, 
        "free_bikes": 3, 
        "id": "e849320b38d85f14349059c3cad5309b", 
        "latitude": 44.10738684435704, 
        "longitude": 9.828236103057861, 
        "name": "07. Europa", 
        "timestamp": "2017-08-15T04:47:31.503000Z"
      }, 
      {
        "empty_slots": 8, 
        "extra": {
          "status": "online"
        }, 
        "free_bikes": 5, 
        "id": "e97aa71e741a3a9371bea7455a482cd5", 
        "latitude": 44.111654538231434, 
        "longitude": 9.832334518432617, 
        "name": "08. Ospedale", 
        "timestamp": "2017-08-15T04:47:31.505000Z"
      }, 
      {
        "empty_slots": 1, 
        "extra": {
          "status": "online"
        }, 
        "free_bikes": 9, 
        "id": "e854b1b5456bc15607c24c52c265ddff", 
        "latitude": 44.12102081469157, 
        "longitude": 9.846668243408203, 
        "name": "09. Concordia", 
        "timestamp": "2017-08-15T04:47:31.507000Z"
      }, 
      {
        "empty_slots": 0, 
        "extra": {
          "status": "offline"
        }, 
        "free_bikes": 0, 
        "id": "e94f4a7917ccc4dea030572fc4fa51bb", 
        "latitude": 44.112424847254495, 
        "longitude": 9.838707447052002, 
        "name": "10. Tribunale", 
        "timestamp": "2017-08-15T04:47:31.508000Z"
      }, 
      {
        "empty_slots": 4, 
        "extra": {
          "status": "online"
        }, 
        "free_bikes": 3, 
        "id": "f96174dcdefa24c35bb3abbfa13b1fac", 
        "latitude": 44.1100060431889, 
        "longitude": 9.811241626739502, 
        "name": "12. Brin", 
        "timestamp": "2017-08-15T04:47:31.511000Z"
      }, 
      {
        "empty_slots": 6, 
        "extra": {
          "status": "online"
        }, 
        "free_bikes": 1, 
        "id": "e3b697321e7fa7f987d21726bc0a1955", 
        "latitude": 44.12598064266635, 
        "longitude": 9.848449230194092, 
        "name": "14. Favaro", 
        "timestamp": "2017-08-15T04:47:31.516000Z"
      }, 
      {
        "empty_slots": 4, 
        "extra": {
          "status": "online"
        }, 
        "free_bikes": 2, 
        "id": "04c7c4fe8aa0772089bb1f6abc3e7ed0", 
        "latitude": 44.11162372566167, 
        "longitude": 9.812507629394531, 
        "name": "17. Stazione", 
        "timestamp": "2017-08-15T04:47:31.520000Z"
      }, 
      {
        "empty_slots": 6, 
        "extra": {
          "status": "online"
        }, 
        "free_bikes": 1, 
        "id": "fe7b4202d316328b17a66b9041376766", 
        "latitude": 44.114889768657854, 
        "longitude": 9.812657833099365, 
        "name": "18. Vivaldi", 
        "timestamp": "2017-08-15T04:47:31.521000Z"
      }, 
      {
        "empty_slots": 4, 
        "extra": {
          "status": "online"
        }, 
        "free_bikes": 5, 
        "id": "8bc2ee8165fc3bb996e47fdc2c8db7b9", 
        "latitude": 44.11463557839271, 
        "longitude": 9.848030805587769, 
        "name": "01. Palasport", 
        "timestamp": "2017-08-15T04:47:31.487000Z"
      }, 
      {
        "empty_slots": 11, 
        "extra": {
          "status": "online"
        }, 
        "free_bikes": 7, 
        "id": "ffd6127c066fb004260bbe1c6b34b6dc", 
        "latitude": 44.10984812419444, 
        "longitude": 9.816351234912872, 
        "name": "03. Stazione FF.SS.", 
        "timestamp": "2017-08-15T04:47:31.490000Z"
      }, 
      {
        "empty_slots": 2, 
        "extra": {
          "status": "online"
        }, 
        "free_bikes": 8, 
        "id": "2b242ae91d3b5d4eb57200ec92c47c4f", 
        "latitude": 44.104530629816644, 
        "longitude": 9.819411635398865, 
        "name": "04. Beverini", 
        "timestamp": "2017-08-15T04:47:31.491000Z"
      }, 
      {
        "empty_slots": 3, 
        "extra": {
          "status": "online"
        }, 
        "free_bikes": 2, 
        "id": "ebebe625cf986f63d9dd1902b27718cf", 
        "latitude": 44.10501020616029, 
        "longitude": 9.821219444274902, 
        "name": "05. Sant'Agostino", 
        "timestamp": "2017-08-15T04:47:31.496000Z"
      }, 
      {
        "empty_slots": 5, 
        "extra": {
          "status": "online"
        }, 
        "free_bikes": 5, 
        "id": "8f0e302268444c2d9c71357d427279b9", 
        "latitude": 44.101803326517, 
        "longitude": 9.820760786533356, 
        "name": "06. Chiodo", 
        "timestamp": "2017-08-15T04:47:31.500000Z"
      }, 
      {
        "empty_slots": 4, 
        "extra": {
          "status": "online"
        }, 
        "free_bikes": 6, 
        "id": "5dbdcb254e95d59e5121018b354d2389", 
        "latitude": 44.103134250837044, 
        "longitude": 9.825092554092407, 
        "name": "11. Marittime", 
        "timestamp": "2017-08-15T04:47:31.509000Z"
      }, 
      {
        "empty_slots": 5, 
        "extra": {
          "status": "online"
        }, 
        "free_bikes": 1, 
        "id": "022ab7dca1aa307e782ab02b1e09466a", 
        "latitude": 44.09891217060231, 
        "longitude": 9.862375259399414, 
        "name": "13. Porto Lotti", 
        "timestamp": "2017-08-15T04:47:31.512000Z"
      }, 
      {
        "empty_slots": 5, 
        "extra": {
          "status": "online"
        }, 
        "free_bikes": 2, 
        "id": "9cf7dc6e674a324dad0d4e69aaf3074d", 
        "latitude": 44.10369473243139, 
        "longitude": 9.819969534873962, 
        "name": "15. Battisti", 
        "timestamp": "2017-08-15T04:47:31.516000Z"
      }, 
      {
        "empty_slots": 4, 
        "extra": {
          "status": "online"
        }, 
        "free_bikes": 3, 
        "id": "16e371eb4d1721a47010b78ea786cb50", 
        "latitude": 44.107265511010134, 
        "longitude": 9.817563593387604, 
        "name": "16. Ginocchio", 
        "timestamp": "2017-08-15T04:47:31.519000Z"
      }, 
      {
        "empty_slots": 7, 
        "extra": {
          "status": "online"
        }, 
        "free_bikes": 2, 
        "id": "22a4ac9f93825b95ed00a3f1d140bcb7", 
        "latitude": 44.11116153518755, 
        "longitude": 9.847043752670288, 
        "name": "19. Bartolomeo", 
        "timestamp": "2017-08-15T04:47:31.522000Z"
      }
    ]
  }
}