{
  "network": {
    "company": [
      "Smoove"
    ], 
    "href": "/v2/networks/velopop", 
    "id": "velopop", 
    "location": {
      "city": "Avignon", 
      "country": "FR", 
      "latitude": 43.943689, 
      "longitude": 4.805833
    }, 
    "name": "V\u00e9lopop", 
    "stations": [
      {
        "empty_slots": 13, 
        "extra": {
          "uid": 14
        }, 
        "free_bikes": 11, 
        "id": "8c6e0195232d860fb6d8d29d525e8e3c", 
        "latitude": 43.946397, 
        "longitude": 4.817007, 
        "name": "12 Porte Thiers", 
        "timestamp": "2017-08-15T04:49:20.192000Z"
      }, 
      {
        "empty_slots": 26, 
        "extra": {
          "uid": 11
        }, 
        "free_bikes": 6, 
        "id": "19adcd69b1398acc61b8cafa9686f10c", 
        "latitude": 43.950911, 
        "longitude": 4.819661, 
        "name": "09 Porte Saint-Lazare", 
        "timestamp": "2017-08-15T04:49:20.193000Z"
      }, 
      {
        "empty_slots": 10, 
        "extra": {
          "uid": 10
        }, 
        "free_bikes": 14, 
        "id": "eb949f02f3ace12bf056836a3c805c16", 
        "latitude": 43.95, 
        "longitude": 4.802222, 
        "name": "08 Porte de l'Oulle", 
        "timestamp": "2017-08-15T04:49:20.194000Z"
      }, 
      {
        "empty_slots": 4, 
        "extra": {
          "uid": 7
        }, 
        "free_bikes": 12, 
        "id": "0fd1f008dc681ab2ba4535bd8d09096c", 
        "latitude": 43.95, 
        "longitude": 4.813056, 
        "name": "05 Carmes", 
        "timestamp": "2017-08-15T04:49:20.195000Z"
      }, 
      {
        "empty_slots": 2, 
        "extra": {
          "uid": 35
        }, 
        "free_bikes": 14, 
        "id": "bb8a941401125c84a0dc477a7a5b43a7", 
        "latitude": 43.963305, 
        "longitude": 4.800287, 
        "name": "24 Villeneuve", 
        "timestamp": "2017-08-15T04:49:20.187000Z"
      }, 
      {
        "empty_slots": 16, 
        "extra": {
          "uid": 36
        }, 
        "free_bikes": 0, 
        "id": "bcac1b77bbff75074751c77161d555e0", 
        "latitude": 43.935808, 
        "longitude": 4.795778, 
        "name": "25 La Fabrica", 
        "timestamp": "2017-08-15T04:49:20.186000Z"
      }, 
      {
        "empty_slots": 9, 
        "extra": {
          "uid": 19
        }, 
        "free_bikes": 15, 
        "id": "075081e4eb2b46b268df443401569920", 
        "latitude": 43.941944, 
        "longitude": 4.822222, 
        "name": "17 Dunant", 
        "timestamp": "2017-08-15T04:49:20.187000Z"
      }, 
      {
        "empty_slots": 6, 
        "extra": {
          "uid": 18
        }, 
        "free_bikes": 10, 
        "id": "856fd76cd5e4f0f19036289602eb08ad", 
        "latitude": 43.939167, 
        "longitude": 4.821389, 
        "name": "16 Rotondes", 
        "timestamp": "2017-08-15T04:49:20.188000Z"
      }, 
      {
        "empty_slots": 4, 
        "extra": {
          "uid": 17
        }, 
        "free_bikes": 8, 
        "id": "c540b5760523fe9866fdf5b66f6c475f", 
        "latitude": 43.947767, 
        "longitude": 4.828687, 
        "name": "15 Mairie Nord", 
        "timestamp": "2017-08-15T04:49:20.189000Z"
      }, 
      {
        "empty_slots": 8, 
        "extra": {
          "uid": 16
        }, 
        "free_bikes": 8, 
        "id": "1d9b575c5efbdc03c4fec0885fbf809f", 
        "latitude": 43.939444, 
        "longitude": 4.805833, 
        "name": "14 Maison pour tous", 
        "timestamp": "2017-08-15T04:49:20.190000Z"
      }, 
      {
        "empty_slots": 8, 
        "extra": {
          "uid": 15
        }, 
        "free_bikes": 8, 
        "id": "6e2ad5caf749c32e50bcd1702de0aa8e", 
        "latitude": 43.937778, 
        "longitude": 4.810278, 
        "name": "13 Saint Ruf", 
        "timestamp": "2017-08-15T04:49:20.191000Z"
      }, 
      {
        "empty_slots": 23, 
        "extra": {
          "uid": 13
        }, 
        "free_bikes": 1, 
        "id": "c0b71721ded5af7db50ee346a0c97d0c", 
        "latitude": 43.943889, 
        "longitude": 4.814722, 
        "name": "11 Porte Limbert", 
        "timestamp": "2017-08-15T04:49:20.193000Z"
      }, 
      {
        "empty_slots": 11, 
        "extra": {
          "uid": 5
        }, 
        "free_bikes": 13, 
        "id": "f7c21d488b4f23a43bc6d7998b956caf", 
        "latitude": 43.949018, 
        "longitude": 4.805381, 
        "name": "03 H\u00f4tel de Ville", 
        "timestamp": "2017-08-15T04:49:20.196000Z"
      }, 
      {
        "empty_slots": 21, 
        "extra": {
          "uid": 4
        }, 
        "free_bikes": 11, 
        "id": "01ace28dc392533471e8e12c2b55d7f8", 
        "latitude": 43.948364, 
        "longitude": 4.809664, 
        "name": "02 Place Pie", 
        "timestamp": "2017-08-15T04:49:20.197000Z"
      }, 
      {
        "empty_slots": 19, 
        "extra": {
          "uid": 3
        }, 
        "free_bikes": 13, 
        "id": "3aa498acbcc5c6ce1ee5e64412806acb", 
        "latitude": 43.943233, 
        "longitude": 4.805682, 
        "name": "01 Jaur\u00e8s", 
        "timestamp": "2017-08-15T04:49:20.197000Z"
      }, 
      {
        "empty_slots": 17, 
        "extra": {
          "uid": 42
        }, 
        "free_bikes": 7, 
        "id": "1260355cfbf617fafa3efa00cc46eb55", 
        "latitude": 43.929973, 
        "longitude": 4.820611, 
        "name": "28 M\u00e9diath\u00e8que", 
        "timestamp": "2017-08-15T04:49:20.183000Z"
      }, 
      {
        "empty_slots": 7, 
        "extra": {
          "uid": 41
        }, 
        "free_bikes": 9, 
        "id": "277dda993099c416e89634833f503ea1", 
        "latitude": 43.932529, 
        "longitude": 4.812275, 
        "name": "27 Abbaye", 
        "timestamp": "2017-08-15T04:49:20.184000Z"
      }, 
      {
        "empty_slots": 7, 
        "extra": {
          "uid": 43
        }, 
        "free_bikes": 9, 
        "id": "867dba363ce34b6cbd329cf6c7ebc643", 
        "latitude": 43.935327, 
        "longitude": 4.830074, 
        "name": "29 Maria Casar\u00e8s", 
        "timestamp": "2017-08-15T04:49:20.181000Z"
      }, 
      {
        "empty_slots": 8, 
        "extra": {
          "uid": 40
        }, 
        "free_bikes": 8, 
        "id": "7139ca352038d56b9906dbf236c575c8", 
        "latitude": 43.950981, 
        "longitude": 4.793611, 
        "name": "26 Parking Piot", 
        "timestamp": "2017-08-15T04:49:20.185000Z"
      }
    ]
  }
}